header: 
  seq: 4052
  stamp: 
    secs: 1565218141
    nsecs: 711151123
  frame_id: "/stereo/left"
pose: 
  position: 
    x: 0.13762126945
    y: 0.000500178524338
    z: 0.482745688858
  orientation: 
    x: 0.00173431808282
    y: 0.999649045595
    z: -0.010210366723
    w: 0.0243829077975
---
header: 
  seq: 4053
  stamp: 
    secs: 1565218142
    nsecs: 328719854
  frame_id: "/stereo/left"
pose: 
  position: 
    x: 0.137878299593
    y: 2.52786922203e-05
    z: 0.483191435785
  orientation: 
    x: 0.00336064107499
    y: 0.999779115507
    z: -0.00747200175357
    w: 0.0193544691854
---
header: 
  seq: 4054
  stamp: 
    secs: 1565218143
    nsecs: 477663516
  frame_id: "/stereo/left"
pose: 
  position: 
    x: 0.137704363472
    y: 0.00024711605352
    z: 0.483227853336
  orientation: 
    x: 0.00186007482614
    y: 0.99969171572
    z: -0.00956303250173
    w: 0.0228377330761
---
header: 
  seq: 4055
  stamp: 
    secs: 1565218144
    nsecs:  51443576
  frame_id: "/stereo/left"
pose: 
  position: 
    x: 0.137756649657
    y: 1.08025145288e-05
    z: 0.482939402266
  orientation: 
    x: 0.00346915244005
    y: 0.999767337263
    z: -0.00835129743635
    w: 0.0195829556898
---
header: 
  seq: 4056
  stamp: 
    secs: 1565218144
    nsecs: 689196348
  frame_id: "/stereo/left"
pose: 
  position: 
    x: 0.137841340994
    y: -5.61648000574e-06
    z: 0.483036094505
  orientation: 
    x: 0.00426562997475
    y: 0.999755602596
    z: -0.00561963806691
    w: 0.0209513519217
---
header: 
  seq: 4057
  stamp: 
    secs: 1565218145
    nsecs: 251937866
  frame_id: "/stereo/left"
pose: 
  position: 
    x: 0.137854217254
    y: -4.97499823104e-05
    z: 0.483040871329
  orientation: 
    x: 0.00426946759166
    y: 0.999791320496
    z: -0.00594853495764
    w: 0.019070973761
---
header: 
  seq: 4058
  stamp: 
    secs: 1565218146
    nsecs: 436345100
  frame_id: "/stereo/left"
pose: 
  position: 
    x: 0.137852239279
    y: 2.36425396154e-05
    z: 0.483236038251
  orientation: 
    x: 0.0032664523169
    y: 0.999805866643
    z: -0.00747613640504
    w: 0.0179350690062
---
header: 
  seq: 4059
  stamp: 
    secs: 1565218147
    nsecs:   5127191
  frame_id: "/stereo/left"
pose: 
  position: 
    x: 0.137933200548
    y: 0.000107778341164
    z: 0.483553950661
  orientation: 
    x: 0.00190457896123
    y: 0.999783273498
    z: -0.00856452049231
    w: 0.0188792902632
---
header: 
  seq: 4060
  stamp: 
    secs: 1565218147
    nsecs: 574261665
  frame_id: "/stereo/left"
pose: 
  position: 
    x: 0.137892262824
    y: 6.34715476468e-05
    z: 0.483430741247
  orientation: 
    x: 0.00202025371417
    y: 0.999809617329
    z: -0.00848518640468
    w: 0.0174542053092
---
header: 
  seq: 4061
  stamp: 
    secs: 1565218148
    nsecs: 736940383
  frame_id: "/stereo/left"
pose: 
  position: 
    x: 0.137615243676
    y: 0.000420692750181
    z: 0.482756572391
  orientation: 
    x: 0.00235717298454
    y: 0.999661128564
    z: -0.00990460765319
    w: 0.023957681893
---
header: 
  seq: 4062
  stamp: 
    secs: 1565218149
    nsecs: 307906150
  frame_id: "/stereo/left"
pose: 
  position: 
    x: 0.136896082747
    y: 0.000656035078948
    z: 0.479770818777
  orientation: 
    x: 0.0106929712563
    y: 0.999494501238
    z: 0.00712335531212
    w: 0.029080236755
---
header: 
  seq: 4063
  stamp: 
    secs: 1565218149
    nsecs: 892482757
  frame_id: "/stereo/left"
pose: 
  position: 
    x: 0.137689877535
    y: 8.94755114549e-05
    z: 0.482969205689
  orientation: 
    x: 0.00311548027883
    y: 0.999744890108
    z: -0.00643738840598
    w: 0.0214244840106
---
header: 
  seq: 4064
  stamp: 
    secs: 1565218151
    nsecs:  34637212
  frame_id: "/stereo/left"
pose: 
  position: 
    x: 0.137868778889
    y: -2.43759149789e-05
    z: 0.483222163194
  orientation: 
    x: 0.00241004701253
    y: 0.999846680373
    z: -0.00828902122322
    w: 0.0152348137029
---
header: 
  seq: 4065
  stamp: 
    secs: 1565218151
    nsecs: 619399547
  frame_id: "/stereo/left"
pose: 
  position: 
    x: 0.13769213721
    y: 0.000189153715418
    z: 0.483016148718
  orientation: 
    x: 0.00256013844376
    y: 0.999728838568
    z: -0.00747751316742
    w: 0.0219039225388
---
header: 
  seq: 4066
  stamp: 
    secs: 1565218152
    nsecs: 179659843
  frame_id: "/stereo/left"
pose: 
  position: 
    x: 0.137505571809
    y: 0.000327018717684
    z: 0.482465984745
  orientation: 
    x: 0.00243114886552
    y: 0.999695701608
    z: -0.00817047569938
    w: 0.023148153911
---
header: 
  seq: 4067
  stamp: 
    secs: 1565218153
    nsecs: 342017173
  frame_id: "/stereo/left"
pose: 
  position: 
    x: 0.137534080004
    y: 0.000483127554981
    z: 0.482548327254
  orientation: 
    x: 0.00192670253845
    y: 0.99964402461
    z: -0.0115721737698
    w: 0.0239624012257
---
header: 
  seq: 4068
  stamp: 
    secs: 1565218153
    nsecs: 905127763
  frame_id: "/stereo/left"
pose: 
  position: 
    x: 0.13757338256
    y: 0.000366561254246
    z: 0.482636906473
  orientation: 
    x: 0.00201315494839
    y: 0.999697696307
    z: -0.0101130596414
    w: 0.0223201530097
---
header: 
  seq: 4069
  stamp: 
    secs: 1565218154
    nsecs: 472613573
  frame_id: "/stereo/left"
pose: 
  position: 
    x: 0.13756030222
    y: 0.000444026326578
    z: 0.482586801687
  orientation: 
    x: 0.00275849825882
    y: 0.999677629783
    z: -0.00820141111719
    w: 0.0238697309053
---
header: 
  seq: 4070
  stamp: 
    secs: 1565218155
    nsecs: 638070821
  frame_id: "/stereo/left"
pose: 
  position: 
    x: 0.13770609744
    y: -2.55543070674e-05
    z: 0.48269743641
  orientation: 
    x: 0.00323008734096
    y: 0.999790597597
    z: -0.00638779613121
    w: 0.0191709038181
---
header: 
  seq: 4071
  stamp: 
    secs: 1565218156
    nsecs: 203178167
  frame_id: "/stereo/left"
pose: 
  position: 
    x: 0.137528162355
    y: 0.000347384871201
    z: 0.482289782401
  orientation: 
    x: 0.00314515300409
    y: 0.999676200396
    z: -0.00633884641536
    w: 0.0244422053171
---
header: 
  seq: 4072
  stamp: 
    secs: 1565218156
    nsecs: 797556161
  frame_id: "/stereo/left"
pose: 
  position: 
    x: 0.137924476482
    y: -8.32390346296e-05
    z: 0.483177607356
  orientation: 
    x: 0.00317244955137
    y: 0.999820880324
    z: -0.00665933119745
    w: 0.0174297487106
---
header: 
  seq: 4073
  stamp: 
    secs: 1565218157
    nsecs: 930762052
  frame_id: "/stereo/left"
pose: 
  position: 
    x: 0.137542136997
    y: 0.000361376596294
    z: 0.482577580049
  orientation: 
    x: 0.00262278926018
    y: 0.999724137248
    z: -0.00827469212354
    w: 0.0218242949786
---
header: 
  seq: 4074
  stamp: 
    secs: 1565218158
    nsecs: 516501426
  frame_id: "/stereo/left"
pose: 
  position: 
    x: 0.137525736782
    y: 0.000398514602461
    z: 0.482416199677
  orientation: 
    x: 0.00248492949782
    y: 0.999675976686
    z: -0.00897206590482
    w: 0.0236911121724
---
header: 
  seq: 4075
  stamp: 
    secs: 1565218159
    nsecs:  83143472
  frame_id: "/stereo/left"
pose: 
  position: 
    x: 0.137707151695
    y: 2.10933987976e-05
    z: 0.482886163371
  orientation: 
    x: 0.00280208760952
    y: 0.999773758185
    z: -0.00817180841894
    w: 0.0194371370342
---
header: 
  seq: 4076
  stamp: 
    secs: 1565218159
    nsecs: 649996519
  frame_id: "/stereo/left"
pose: 
  position: 
    x: 0.13764138077
    y: 0.00012595572974
    z: 0.482783000724
  orientation: 
    x: 0.00295454307997
    y: 0.999698745183
    z: -0.00685462846277
    w: 0.023381694178
---
header: 
  seq: 4077
  stamp: 
    secs: 1565218160
    nsecs: 862348318
  frame_id: "/stereo/left"
pose: 
  position: 
    x: 0.137750521841
    y: -9.26772884712e-06
    z: 0.483032271657
  orientation: 
    x: 0.00311783989233
    y: 0.999783479079
    z: -0.00708586528381
    w: 0.0193148789377
---
header: 
  seq: 4078
  stamp: 
    secs: 1565218161
    nsecs: 442297935
  frame_id: "/stereo/left"
pose: 
  position: 
    x: 0.137809835059
    y: -6.27184628994e-05
    z: 0.482895376736
  orientation: 
    x: 0.00388965139947
    y: 0.999771260756
    z: -0.00595512287007
    w: 0.0201701088117
---
header: 
  seq: 4079
  stamp: 
    secs: 1565218162
    nsecs:  99195241
  frame_id: "/stereo/left"
pose: 
  position: 
    x: 0.137548712778
    y: 0.000376834602366
    z: 0.482375082623
  orientation: 
    x: 0.00260185223791
    y: 0.999689248588
    z: -0.00759166741515
    w: 0.023600915395
---
header: 
  seq: 4080
  stamp: 
    secs: 1565218162
    nsecs: 665527820
  frame_id: "/stereo/left"
pose: 
  position: 
    x: 0.137699357896
    y: 0.000162120276169
    z: 0.482923098163
  orientation: 
    x: 0.00275989210566
    y: 0.999711449313
    z: -0.00818567548964
    w: 0.0224141880418
---
header: 
  seq: 4081
  stamp: 
    secs: 1565218163
    nsecs: 852167606
  frame_id: "/stereo/left"
pose: 
  position: 
    x: 0.137812467824
    y: -2.41354973283e-05
    z: 0.483007743525
  orientation: 
    x: 0.00309272184931
    y: 0.999797839059
    z: -0.00738859073096
    w: 0.0184424730325
---
header: 
  seq: 4082
  stamp: 
    secs: 1565218164
    nsecs: 427899599
  frame_id: "/stereo/left"
pose: 
  position: 
    x: 0.137733503658
    y: 5.35473761153e-05
    z: 0.482995419522
  orientation: 
    x: 0.00297154888567
    y: 0.999777497591
    z: -0.00733126069345
    w: 0.019554483512
---
header: 
  seq: 4083
  stamp: 
    secs: 1565218164
    nsecs: 996279001
  frame_id: "/stereo/left"
pose: 
  position: 
    x: 0.137527933719
    y: 0.000383341115239
    z: 0.482420174231
  orientation: 
    x: 0.0032604532271
    y: 0.999703910223
    z: -0.00615238628333
    w: 0.0233154342014
---
header: 
  seq: 4084
  stamp: 
    secs: 1565218165
    nsecs: 588104486
  frame_id: "/stereo/left"
pose: 
  position: 
    x: 0.137723470307
    y: -1.35966025426e-05
    z: 0.482898461527
  orientation: 
    x: 0.00294633624963
    y: 0.999807641497
    z: -0.00802400189599
    w: 0.0176526060322
---
header: 
  seq: 4085
  stamp: 
    secs: 1565218166
    nsecs: 726971864
  frame_id: "/stereo/left"
pose: 
  position: 
    x: 0.137720093613
    y: 0.000172704406466
    z: 0.483045395686
  orientation: 
    x: 0.00228038660164
    y: 0.99970294843
    z: -0.00866598376972
    w: 0.0226652920249
---
header: 
  seq: 4086
  stamp: 
    secs: 1565218167
    nsecs: 370964288
  frame_id: "/stereo/left"
pose: 
  position: 
    x: 0.137236993543
    y: 0.000556080254626
    z: 0.480957460361
  orientation: 
    x: 0.00752218511679
    y: 0.999578222198
    z: 0.00234519455886
    w: 0.0279516457491
---
header: 
  seq: 4087
  stamp: 
    secs: 1565218167
    nsecs: 938120841
  frame_id: "/stereo/left"
pose: 
  position: 
    x: 0.137787694627
    y: 0.000398297482898
    z: 0.483215787061
  orientation: 
    x: 0.000242944599592
    y: 0.99967988207
    z: -0.0137971892633
    w: 0.0212064124738
---
header: 
  seq: 4088
  stamp: 
    secs: 1565218168
    nsecs: 522374629
  frame_id: "/stereo/left"
pose: 
  position: 
    x: 0.137947679277
    y: 2.07993121886e-05
    z: 0.483590353427
  orientation: 
    x: 0.00196876282752
    y: 0.999825066936
    z: -0.0085772086031
    w: 0.0165042719341
---
header: 
  seq: 4089
  stamp: 
    secs: 1565218169
    nsecs: 689111232
  frame_id: "/stereo/left"
pose: 
  position: 
    x: 0.137692524475
    y: 0.000182388264673
    z: 0.48319511055
  orientation: 
    x: 0.00227141191776
    y: 0.999723214895
    z: -0.00850349925728
    w: 0.0218179923293
---
header: 
  seq: 4090
  stamp: 
    secs: 1565218170
    nsecs: 259509325
  frame_id: "/stereo/left"
pose: 
  position: 
    x: 0.137126777335
    y: 0.000626895233848
    z: 0.480245394743
  orientation: 
    x: 0.00882174728732
    y: 0.999529012709
    z: 0.00466178338331
    w: 0.0290206358328
---
header: 
  seq: 4091
  stamp: 
    secs: 1565218170
    nsecs: 898241519
  frame_id: "/stereo/left"
pose: 
  position: 
    x: 0.137794979691
    y: -2.57922951505e-05
    z: 0.483001648089
  orientation: 
    x: 0.00436934742534
    y: 0.999776487854
    z: -0.00551750889585
    w: 0.0199359031339
---
