header: 
  seq: 5571
  stamp: 
    secs: 1565219356
    nsecs: 612930297
  frame_id: "/stereo/left"
pose: 
  position: 
    x: -0.0660697894417
    y: 0.0147499305711
    z: 0.439853579012
  orientation: 
    x: -0.0209703536122
    y: -0.996063646541
    z: -0.0840794757864
    w: -0.0186573861947
---
header: 
  seq: 5572
  stamp: 
    secs: 1565219357
    nsecs: 220201253
  frame_id: "/stereo/left"
pose: 
  position: 
    x: -0.0660064204861
    y: 0.0146261327911
    z: 0.439877973968
  orientation: 
    x: -0.0206725978091
    y: -0.995847436364
    z: -0.0871198078769
    w: -0.0164519379408
---
header: 
  seq: 5573
  stamp: 
    secs: 1565219357
    nsecs: 815045595
  frame_id: "/stereo/left"
pose: 
  position: 
    x: -0.0659807493492
    y: 0.0146176482445
    z: 0.439772937413
  orientation: 
    x: -0.0206165525243
    y: -0.995911434949
    z: -0.086548394728
    w: -0.0156443877767
---
header: 
  seq: 5574
  stamp: 
    secs: 1565219359
    nsecs:  11575937
  frame_id: "/stereo/left"
pose: 
  position: 
    x: -0.0661244607992
    y: 0.014729548995
    z: 0.439983422209
  orientation: 
    x: -0.0209846056105
    y: -0.995978267154
    z: -0.0851118501206
    w: -0.0185178468606
---
header: 
  seq: 5575
  stamp: 
    secs: 1565219359
    nsecs: 582434177
  frame_id: "/stereo/left"
pose: 
  position: 
    x: -0.0660557593998
    y: 0.0145856444148
    z: 0.440110531712
  orientation: 
    x: -0.0207752806103
    y: -0.995854911223
    z: -0.0871981829025
    w: -0.0154227237344
---
header: 
  seq: 5576
  stamp: 
    secs: 1565219360
    nsecs: 191340684
  frame_id: "/stereo/left"
pose: 
  position: 
    x: -0.0660488511349
    y: 0.0145911745363
    z: 0.439950954758
  orientation: 
    x: -0.020938133086
    y: -0.995797859922
    z: -0.0872632639009
    w: -0.0182575882956
---
header: 
  seq: 5577
  stamp: 
    secs: 1565219360
    nsecs: 767845392
  frame_id: "/stereo/left"
pose: 
  position: 
    x: -0.0660265429519
    y: 0.0145833332664
    z: 0.43998285923
  orientation: 
    x: -0.0208134350633
    y: -0.995914758769
    z: -0.0863684077693
    w: -0.016158351589
---
header: 
  seq: 5578
  stamp: 
    secs: 1565219361
    nsecs: 914967536
  frame_id: "/stereo/left"
pose: 
  position: 
    x: -0.0659728377749
    y: 0.0145772183687
    z: 0.439736178372
  orientation: 
    x: -0.0207697309796
    y: -0.995990104367
    z: -0.0852152887983
    w: -0.0176262540646
---
header: 
  seq: 5579
  stamp: 
    secs: 1565219362
    nsecs: 488387107
  frame_id: "/stereo/left"
pose: 
  position: 
    x: -0.065896716316
    y: 0.0146027653494
    z: 0.439563885029
  orientation: 
    x: -0.0207092505569
    y: -0.996052218856
    z: -0.0844126807636
    w: -0.0180444888956
---
header: 
  seq: 5580
  stamp: 
    secs: 1565219363
    nsecs:  56921005
  frame_id: "/stereo/left"
pose: 
  position: 
    x: -0.0660132232493
    y: 0.0147004425732
    z: 0.439727403127
  orientation: 
    x: -0.0206123934337
    y: -0.996060863299
    z: -0.0844483768177
    w: -0.0175030710023
---
header: 
  seq: 5581
  stamp: 
    secs: 1565219363
    nsecs: 689494848
  frame_id: "/stereo/left"
pose: 
  position: 
    x: -0.0660883390652
    y: 0.0146691516598
    z: 0.440106631274
  orientation: 
    x: -0.0208736202453
    y: -0.995850825929
    z: -0.0870797545229
    w: -0.0162031116567
---
header: 
  seq: 5582
  stamp: 
    secs: 1565219364
    nsecs: 830722093
  frame_id: "/stereo/left"
pose: 
  position: 
    x: -0.0660959354045
    y: 0.0147329776852
    z: 0.440202310991
  orientation: 
    x: -0.0208715557176
    y: -0.995804148998
    z: -0.0873460651536
    w: -0.017582374791
---
header: 
  seq: 5583
  stamp: 
    secs: 1565219365
    nsecs: 442722082
  frame_id: "/stereo/left"
pose: 
  position: 
    x: -0.0659370220563
    y: 0.0147102844206
    z: 0.439151117599
  orientation: 
    x: -0.0203321501061
    y: -0.995959452673
    z: -0.0862114717803
    w: -0.0147971090692
---
header: 
  seq: 5584
  stamp: 
    secs: 1565219366
    nsecs:   4971504
  frame_id: "/stereo/left"
pose: 
  position: 
    x: -0.0658484508957
    y: 0.0147793846758
    z: 0.43853131478
  orientation: 
    x: -0.0199773968766
    y: -0.996192463176
    z: -0.0842989866211
    w: -0.00975503872681
---
header: 
  seq: 5585
  stamp: 
    secs: 1565219366
    nsecs: 573455810
  frame_id: "/stereo/left"
pose: 
  position: 
    x: -0.0660500658345
    y: 0.0147457101809
    z: 0.439838641
  orientation: 
    x: -0.0208172576314
    y: -0.995930601246
    z: -0.0859679249713
    w: -0.0172741182873
---
header: 
  seq: 5586
  stamp: 
    secs: 1565219367
    nsecs: 791905403
  frame_id: "/stereo/left"
pose: 
  position: 
    x: -0.0661572178616
    y: 0.0147647725
    z: 0.440239271996
  orientation: 
    x: -0.0208315022171
    y: -0.995882031352
    z: -0.0866633582712
    w: -0.0165677541965
---
header: 
  seq: 5587
  stamp: 
    secs: 1565219368
    nsecs: 380755186
  frame_id: "/stereo/left"
pose: 
  position: 
    x: -0.0659675624966
    y: 0.0147969383967
    z: 0.438823843013
  orientation: 
    x: -0.0198890530779
    y: -0.996095429956
    z: -0.0853049440931
    w: -0.0110175542231
---
header: 
  seq: 5588
  stamp: 
    secs: 1565219368
    nsecs: 999937772
  frame_id: "/stereo/left"
pose: 
  position: 
    x: -0.0661886641631
    y: 0.0147576918816
    z: 0.440379574135
  orientation: 
    x: -0.0211763703749
    y: -0.99585007229
    z: -0.0868028949765
    w: -0.0173046895876
---
header: 
  seq: 5589
  stamp: 
    secs: 1565219369
    nsecs: 564610242
  frame_id: "/stereo/left"
pose: 
  position: 
    x: -0.0661458211877
    y: 0.014743667171
    z: 0.440290094236
  orientation: 
    x: -0.0208283506304
    y: -0.995823187437
    z: -0.0871373472527
    w: -0.0175909603765
---
header: 
  seq: 5590
  stamp: 
    secs: 1565219370
    nsecs: 730580568
  frame_id: "/stereo/left"
pose: 
  position: 
    x: -0.0660112831074
    y: 0.0147018850227
    z: 0.439944039521
  orientation: 
    x: -0.0206292513126
    y: -0.995872836774
    z: -0.0869410106727
    w: -0.0159055848133
---
header: 
  seq: 5591
  stamp: 
    secs: 1565219371
    nsecs: 291121244
  frame_id: "/stereo/left"
pose: 
  position: 
    x: -0.0659627588532
    y: 0.0146926179149
    z: 0.439649719364
  orientation: 
    x: -0.0203838296027
    y: -0.996003542159
    z: -0.085627336368
    w: -0.0151460478299
---
header: 
  seq: 5592
  stamp: 
    secs: 1565219371
    nsecs: 863165616
  frame_id: "/stereo/left"
pose: 
  position: 
    x: -0.066159481516
    y: 0.0147905195174
    z: 0.440210857101
  orientation: 
    x: -0.0206174487278
    y: -0.995938360203
    z: -0.0863925289569
    w: -0.0147659887879
---
header: 
  seq: 5593
  stamp: 
    secs: 1565219372
    nsecs: 511150360
  frame_id: "/stereo/left"
pose: 
  position: 
    x: -0.0661909879616
    y: 0.0148247937641
    z: 0.440258539986
  orientation: 
    x: -0.020947346126
    y: -0.996063486314
    z: -0.0848403503132
    w: -0.0148611870704
---
header: 
  seq: 5594
  stamp: 
    secs: 1565219373
    nsecs: 661422729
  frame_id: "/stereo/left"
pose: 
  position: 
    x: -0.066213727876
    y: 0.0148282322152
    z: 0.440310148453
  orientation: 
    x: -0.0208386744583
    y: -0.996081171484
    z: -0.0845718630611
    w: -0.015350877478
---
header: 
  seq: 5595
  stamp: 
    secs: 1565219374
    nsecs: 272557258
  frame_id: "/stereo/left"
pose: 
  position: 
    x: -0.0661462676873
    y: 0.0147163683843
    z: 0.440415104036
  orientation: 
    x: -0.0206933759837
    y: -0.99586595802
    z: -0.0872520353487
    w: -0.0144865515347
---
header: 
  seq: 5596
  stamp: 
    secs: 1565219374
    nsecs: 856263875
  frame_id: "/stereo/left"
pose: 
  position: 
    x: -0.0661286514301
    y: 0.014685205765
    z: 0.440239108821
  orientation: 
    x: -0.0205287307693
    y: -0.99584743157
    z: -0.0876231407554
    w: -0.0137349718784
---
header: 
  seq: 5597
  stamp: 
    secs: 1565219375
    nsecs: 426837682
  frame_id: "/stereo/left"
pose: 
  position: 
    x: -0.06613471737
    y: 0.0147070620312
    z: 0.440333396334
  orientation: 
    x: -0.0209658969247
    y: -0.995858965496
    z: -0.0870378716151
    w: -0.0158038258482
---
header: 
  seq: 5598
  stamp: 
    secs: 1565219376
    nsecs: 628425836
  frame_id: "/stereo/left"
pose: 
  position: 
    x: -0.066178301568
    y: 0.0147435081503
    z: 0.440228706629
  orientation: 
    x: -0.0206288707816
    y: -0.995957267155
    z: -0.0862601605169
    w: -0.0142392555929
---
header: 
  seq: 5599
  stamp: 
    secs: 1565219377
    nsecs: 198380708
  frame_id: "/stereo/left"
pose: 
  position: 
    x: -0.0661927352521
    y: 0.0148158490673
    z: 0.440183300781
  orientation: 
    x: -0.0208606456078
    y: -0.996076847779
    z: -0.084695713637
    w: -0.0149125073324
---
header: 
  seq: 5600
  stamp: 
    secs: 1565219377
    nsecs: 806095123
  frame_id: "/stereo/left"
pose: 
  position: 
    x: -0.0661539147517
    y: 0.0146849939647
    z: 0.44026445958
  orientation: 
    x: -0.0203996368753
    y: -0.995836218424
    z: -0.0877367555555
    w: -0.0140122309352
---
header: 
  seq: 5601
  stamp: 
    secs: 1565219378
    nsecs: 382427453
  frame_id: "/stereo/left"
pose: 
  position: 
    x: -0.0660360185256
    y: 0.0147386465779
    z: 0.439930165177
  orientation: 
    x: -0.0204620172414
    y: -0.996039369717
    z: -0.0853597510698
    w: -0.014163075959
---
header: 
  seq: 5602
  stamp: 
    secs: 1565219379
    nsecs: 591197490
  frame_id: "/stereo/left"
pose: 
  position: 
    x: -0.0661875031383
    y: 0.0147166486131
    z: 0.440410072235
  orientation: 
    x: -0.020990913097
    y: -0.995842726551
    z: -0.0874200379168
    w: -0.0146418070406
---
header: 
  seq: 5603
  stamp: 
    secs: 1565219380
    nsecs: 164652347
  frame_id: "/stereo/left"
pose: 
  position: 
    x: -0.0661496417816
    y: 0.0146977894895
    z: 0.440339541716
  orientation: 
    x: -0.0209855624027
    y: -0.995863687779
    z: -0.0871253842092
    w: -0.0149762799142
---
header: 
  seq: 5604
  stamp: 
    secs: 1565219380
    nsecs: 729352235
  frame_id: "/stereo/left"
pose: 
  position: 
    x: -0.0661730684604
    y: 0.0147484615429
    z: 0.440314941303
  orientation: 
    x: -0.0206770088049
    y: -0.995928289763
    z: -0.086543408839
    w: -0.0144755429141
---
header: 
  seq: 5605
  stamp: 
    secs: 1565219381
    nsecs: 914961338
  frame_id: "/stereo/left"
pose: 
  position: 
    x: -0.0661430542089
    y: 0.0148447713824
    z: 0.440222560257
  orientation: 
    x: -0.0211608725623
    y: -0.996090944001
    z: -0.0843025280175
    w: -0.0157522227544
---
header: 
  seq: 5606
  stamp: 
    secs: 1565219382
    nsecs: 485380411
  frame_id: "/stereo/left"
pose: 
  position: 
    x: -0.0662076130163
    y: 0.0147475120368
    z: 0.440479086988
  orientation: 
    x: -0.0211626825607
    y: -0.995890426399
    z: -0.0866097042757
    w: -0.0159109584299
---
header: 
  seq: 5607
  stamp: 
    secs: 1565219383
    nsecs:  70044040
  frame_id: "/stereo/left"
pose: 
  position: 
    x: -0.066317247271
    y: 0.0148003600146
    z: 0.440903380351
  orientation: 
    x: -0.0217288106036
    y: -0.995877258307
    z: -0.0856980787366
    w: -0.0203023268998
---
header: 
  seq: 5608
  stamp: 
    secs: 1565219384
    nsecs: 190887212
  frame_id: "/stereo/left"
pose: 
  position: 
    x: -0.0661404979921
    y: 0.0147069469803
    z: 0.440384470371
  orientation: 
    x: -0.0209170796316
    y: -0.995874309362
    z: -0.0869952748681
    w: -0.0151214378907
---
header: 
  seq: 5609
  stamp: 
    secs: 1565219384
    nsecs: 782620191
  frame_id: "/stereo/left"
pose: 
  position: 
    x: -0.0660794937453
    y: 0.0146718227906
    z: 0.439964153349
  orientation: 
    x: -0.0207694751505
    y: -0.996035487465
    z: -0.0849987357066
    w: -0.0160359452738
---
header: 
  seq: 5610
  stamp: 
    secs: 1565219385
    nsecs: 364151716
  frame_id: "/stereo/left"
pose: 
  position: 
    x: -0.066131176666
    y: 0.0147109285054
    z: 0.440146550446
  orientation: 
    x: -0.0207240009445
    y: -0.996091221055
    z: -0.0842919187397
    w: -0.0163605488296
---
