header: 
  seq: 4146
  stamp: 
    secs: 1565218214
    nsecs: 101734876
  frame_id: "/stereo/left"
pose: 
  position: 
    x: 0.185742711022
    y: -0.000985957614882
    z: 0.478610405184
  orientation: 
    x: -0.0108727622999
    y: 0.998537454466
    z: -0.0335846372509
    w: 0.0409488364894
---
header: 
  seq: 4147
  stamp: 
    secs: 1565218215
    nsecs: 329688787
  frame_id: "/stereo/left"
pose: 
  position: 
    x: 0.185559768821
    y: -0.000924936250627
    z: 0.477686823044
  orientation: 
    x: -0.00972792543522
    y: 0.998512674364
    z: -0.0339297691025
    w: 0.0415521042752
---
header: 
  seq: 4148
  stamp: 
    secs: 1565218215
    nsecs: 891182184
  frame_id: "/stereo/left"
pose: 
  position: 
    x: 0.185148975006
    y: -0.000201512201994
    z: 0.475585833194
  orientation: 
    x: -0.00255974828581
    y: 0.998532845808
    z: -0.0278456315409
    w: 0.0463705114773
---
header: 
  seq: 4149
  stamp: 
    secs: 1565218216
    nsecs: 460521936
  frame_id: "/stereo/left"
pose: 
  position: 
    x: 0.185841621573
    y: -0.00108128673873
    z: 0.479021440835
  orientation: 
    x: -0.0101460866001
    y: 0.998790662783
    z: -0.0309431722496
    w: 0.0368346162541
---
header: 
  seq: 4150
  stamp: 
    secs: 1565218217
    nsecs: 103827714
  frame_id: "/stereo/left"
pose: 
  position: 
    x: 0.185672424804
    y: -0.000927396462357
    z: 0.4780927654
  orientation: 
    x: -0.00915912796499
    y: 0.998621699734
    z: -0.0321510427589
    w: 0.0404613598979
---
header: 
  seq: 4151
  stamp: 
    secs: 1565218218
    nsecs: 244379281
  frame_id: "/stereo/left"
pose: 
  position: 
    x: 0.18555706195
    y: -0.000880690609364
    z: 0.477571582857
  orientation: 
    x: -0.00894807264595
    y: 0.998540464657
    z: -0.0326350599372
    w: 0.042093055266
---
header: 
  seq: 4152
  stamp: 
    secs: 1565218218
    nsecs: 845784664
  frame_id: "/stereo/left"
pose: 
  position: 
    x: 0.184859953591
    y: 0.000335869569411
    z: 0.476577258009
  orientation: 
    x: -0.00733520390453
    y: 0.997704159016
    z: -0.0470202633335
    w: 0.04818402953
---
header: 
  seq: 4153
  stamp: 
    secs: 1565218219
    nsecs: 416324138
  frame_id: "/stereo/left"
pose: 
  position: 
    x: 0.186124853132
    y: -0.00113928713277
    z: 0.479854707997
  orientation: 
    x: -0.0101617475095
    y: 0.998788266932
    z: -0.031212626418
    w: 0.0366675425635
---
header: 
  seq: 4154
  stamp: 
    secs: 1565218219
    nsecs: 989216566
  frame_id: "/stereo/left"
pose: 
  position: 
    x: 0.185527944772
    y: -0.000848048601792
    z: 0.477329383479
  orientation: 
    x: -0.00820865665916
    y: 0.998559821009
    z: -0.0325664385773
    w: 0.0418369322548
---
header: 
  seq: 4155
  stamp: 
    secs: 1565218221
    nsecs: 219487190
  frame_id: "/stereo/left"
pose: 
  position: 
    x: 0.18514027687
    y: -0.000344178204504
    z: 0.475533522035
  orientation: 
    x: -0.00288884572363
    y: 0.998506115396
    z: -0.0287828127279
    w: 0.0463545227441
---
header: 
  seq: 4156
  stamp: 
    secs: 1565218221
    nsecs: 785646200
  frame_id: "/stereo/left"
pose: 
  position: 
    x: 0.185837878555
    y: -0.00116527122233
    z: 0.478991177865
  orientation: 
    x: -0.010249147398
    y: 0.998756875864
    z: -0.0307892462934
    w: 0.0378375501929
---
header: 
  seq: 4157
  stamp: 
    secs: 1565218222
    nsecs: 383456707
  frame_id: "/stereo/left"
pose: 
  position: 
    x: 0.185485837813
    y: -0.000912686198686
    z: 0.477381255379
  orientation: 
    x: -0.00758599064729
    y: 0.998626468119
    z: -0.0298730883594
    w: 0.0423701370139
---
header: 
  seq: 4158
  stamp: 
    secs: 1565218223
    nsecs: 510675668
  frame_id: "/stereo/left"
pose: 
  position: 
    x: 0.186366125823
    y: -0.0013002405201
    z: 0.480105808048
  orientation: 
    x: -0.00874743764769
    y: 0.998998203512
    z: -0.0271653376147
    w: 0.0344690607021
---
header: 
  seq: 4159
  stamp: 
    secs: 1565218224
    nsecs: 106079339
  frame_id: "/stereo/left"
pose: 
  position: 
    x: 0.185513091946
    y: -0.0010347642303
    z: 0.477442615647
  orientation: 
    x: -0.00918429102901
    y: 0.998614512645
    z: -0.0311118575844
    w: 0.0414337573717
---
header: 
  seq: 4160
  stamp: 
    secs: 1565218224
    nsecs: 669601678
  frame_id: "/stereo/left"
pose: 
  position: 
    x: 0.185171898027
    y: -0.000301149919744
    z: 0.475620826096
  orientation: 
    x: -0.00197655556864
    y: 0.998637988615
    z: -0.0274178290781
    w: 0.0443455022685
---
header: 
  seq: 4161
  stamp: 
    secs: 1565218225
    nsecs: 235042333
  frame_id: "/stereo/left"
pose: 
  position: 
    x: 0.185886261113
    y: -0.00115822083542
    z: 0.479315658804
  orientation: 
    x: -0.0102989586344
    y: 0.998706295359
    z: -0.0314105874153
    w: 0.0386399024222
---
header: 
  seq: 4162
  stamp: 
    secs: 1565218226
    nsecs: 395939111
  frame_id: "/stereo/left"
pose: 
  position: 
    x: 0.185173333533
    y: -0.000392461844336
    z: 0.475747684291
  orientation: 
    x: -0.0026236181482
    y: 0.998563133998
    z: -0.0283921664041
    w: 0.045372557066
---
header: 
  seq: 4163
  stamp: 
    secs: 1565218226
    nsecs: 979456424
  frame_id: "/stereo/left"
pose: 
  position: 
    x: 0.18588811742
    y: -0.00118125333602
    z: 0.47919601942
  orientation: 
    x: -0.0106014442254
    y: 0.99871417885
    z: -0.0312712630132
    w: 0.0384669527477
---
header: 
  seq: 4164
  stamp: 
    secs: 1565218227
    nsecs: 621327877
  frame_id: "/stereo/left"
pose: 
  position: 
    x: 0.185785455233
    y: -0.00106115143061
    z: 0.478929909968
  orientation: 
    x: -0.0106407826927
    y: 0.998643110818
    z: -0.0327257074207
    w: 0.0390863023652
---
header: 
  seq: 4165
  stamp: 
    secs: 1565218228
    nsecs: 186499834
  frame_id: "/stereo/left"
pose: 
  position: 
    x: 0.185793019731
    y: -0.00111564385722
    z: 0.478953776347
  orientation: 
    x: -0.0102528466354
    y: 0.998686651132
    z: -0.0308039405161
    w: 0.0396354542606
---
header: 
  seq: 4166
  stamp: 
    secs: 1565218229
    nsecs: 353766918
  frame_id: "/stereo/left"
pose: 
  position: 
    x: 0.185441836404
    y: -0.000905374958412
    z: 0.47743570464
  orientation: 
    x: -0.00883217574655
    y: 0.998583066242
    z: -0.0320378272429
    w: 0.0415623641379
---
header: 
  seq: 4167
  stamp: 
    secs: 1565218229
    nsecs: 936183452
  frame_id: "/stereo/left"
pose: 
  position: 
    x: 0.185756731783
    y: -0.00104445606181
    z: 0.478710985337
  orientation: 
    x: -0.0109680366188
    y: 0.998635837282
    z: -0.0326533220151
    w: 0.0392419065657
---
header: 
  seq: 4168
  stamp: 
    secs: 1565218230
    nsecs: 501721858
  frame_id: "/stereo/left"
pose: 
  position: 
    x: 0.185158230846
    y: -0.000360995440123
    z: 0.47561035072
  orientation: 
    x: -0.00313553392802
    y: 0.998500965624
    z: -0.0289883792458
    w: 0.0463213119775
---
header: 
  seq: 4169
  stamp: 
    secs: 1565218231
    nsecs: 145560264
  frame_id: "/stereo/left"
pose: 
  position: 
    x: 0.185988622586
    y: -0.00117186890637
    z: 0.479436306675
  orientation: 
    x: -0.0102902990603
    y: 0.998784148567
    z: -0.031288528226
    w: 0.0366791809932
---
header: 
  seq: 4170
  stamp: 
    secs: 1565218232
    nsecs: 293421268
  frame_id: "/stereo/left"
pose: 
  position: 
    x: 0.185899127365
    y: -0.00118498717868
    z: 0.479125658161
  orientation: 
    x: -0.0102725298629
    y: 0.998771539051
    z: -0.0306287796703
    w: 0.0375734716069
---
header: 
  seq: 4171
  stamp: 
    secs: 1565218232
    nsecs: 897463321
  frame_id: "/stereo/left"
pose: 
  position: 
    x: 0.18516147786
    y: -0.000212042122819
    z: 0.47557443866
  orientation: 
    x: -0.0031644314022
    y: 0.99848260009
    z: -0.0296500496268
    w: 0.0462964172369
---
header: 
  seq: 4172
  stamp: 
    secs: 1565218233
    nsecs: 472029447
  frame_id: "/stereo/left"
pose: 
  position: 
    x: 0.184717992475
    y: 0.000387124728616
    z: 0.476367251135
  orientation: 
    x: -0.00793406807038
    y: 0.997681132314
    z: -0.048265113105
    w: 0.0473274512889
---
header: 
  seq: 4173
  stamp: 
    secs: 1565218234
    nsecs:  37401676
  frame_id: "/stereo/left"
pose: 
  position: 
    x: 0.185691395849
    y: -0.00102742730034
    z: 0.478807632874
  orientation: 
    x: -0.0107390334349
    y: 0.998578762631
    z: -0.0326412079139
    w: 0.0407391645592
---
header: 
  seq: 4174
  stamp: 
    secs: 1565218235
    nsecs: 255931854
  frame_id: "/stereo/left"
pose: 
  position: 
    x: 0.185624991048
    y: -0.000939882938102
    z: 0.477854093068
  orientation: 
    x: -0.00892934729328
    y: 0.99857790319
    z: -0.0321737815203
    w: 0.041560628005
---
header: 
  seq: 4175
  stamp: 
    secs: 1565218235
    nsecs: 833648681
  frame_id: "/stereo/left"
pose: 
  position: 
    x: 0.185098423346
    y: -0.000320241895006
    z: 0.475405049738
  orientation: 
    x: -0.00324993632173
    y: 0.998451728582
    z: -0.0296529805431
    w: 0.0469498067237
---
header: 
  seq: 4176
  stamp: 
    secs: 1565218236
    nsecs: 449173927
  frame_id: "/stereo/left"
pose: 
  position: 
    x: 0.185839072745
    y: -0.00112428804057
    z: 0.479017367803
  orientation: 
    x: -0.010390758805
    y: 0.99866666139
    z: -0.0314393343245
    w: 0.0396042903865
---
header: 
  seq: 4177
  stamp: 
    secs: 1565218237
    nsecs:  18603563
  frame_id: "/stereo/left"
pose: 
  position: 
    x: 0.186113624612
    y: -0.00116992545061
    z: 0.47964785617
  orientation: 
    x: -0.0105009095007
    y: 0.998777192212
    z: -0.031324529857
    w: 0.0367780511353
---
header: 
  seq: 4178
  stamp: 
    secs: 1565218238
    nsecs: 179069519
  frame_id: "/stereo/left"
pose: 
  position: 
    x: 0.185011241253
    y: -0.000274056228388
    z: 0.475246695951
  orientation: 
    x: -0.00275176617941
    y: 0.998458138439
    z: -0.0282257716813
    w: 0.0477187529314
---
header: 
  seq: 4179
  stamp: 
    secs: 1565218238
    nsecs: 742396354
  frame_id: "/stereo/left"
pose: 
  position: 
    x: 0.184744254994
    y: -1.43659783748e-05
    z: 0.475940852861
  orientation: 
    x: -0.00313015907875
    y: 0.998169031362
    z: -0.031630873193
    w: 0.0514613913008
---
header: 
  seq: 4180
  stamp: 
    secs: 1565218239
    nsecs: 304358720
  frame_id: "/stereo/left"
pose: 
  position: 
    x: 0.185675354335
    y: -0.000881005614824
    z: 0.478161511389
  orientation: 
    x: -0.0114011170553
    y: 0.99850015986
    z: -0.0357514106653
    w: 0.0398657989377
---
header: 
  seq: 4181
  stamp: 
    secs: 1565218240
    nsecs: 492349147
  frame_id: "/stereo/left"
pose: 
  position: 
    x: 0.18509091299
    y: -0.000361139859908
    z: 0.475327332848
  orientation: 
    x: -0.00262877401456
    y: 0.998563715514
    z: -0.0265137831669
    w: 0.0464824150398
---
header: 
  seq: 4182
  stamp: 
    secs: 1565218241
    nsecs:  50474405
  frame_id: "/stereo/left"
pose: 
  position: 
    x: 0.186294087472
    y: -0.000789947430736
    z: 0.480231643936
  orientation: 
    x: -0.0127677313825
    y: 0.998698088665
    z: -0.036712002247
    w: 0.0330354600943
---
header: 
  seq: 4183
  stamp: 
    secs: 1565218241
    nsecs: 683873653
  frame_id: "/stereo/left"
pose: 
  position: 
    x: 0.185565787028
    y: 2.99373708234e-05
    z: 0.477286150548
  orientation: 
    x: -0.0106167396917
    y: 0.998073041222
    z: -0.0423033048331
    w: 0.0441352424397
---
header: 
  seq: 4184
  stamp: 
    secs: 1565218242
    nsecs: 828122377
  frame_id: "/stereo/left"
pose: 
  position: 
    x: 0.185164778961
    y: -0.000251704237056
    z: 0.475471552971
  orientation: 
    x: -0.00348477993976
    y: 0.998477196167
    z: -0.0304910646811
    w: 0.0458414661471
---
