header: 
  seq: 2024
  stamp: 
    secs: 1565216633
    nsecs: 104269027
  frame_id: "/stereo/left"
pose: 
  position: 
    x: -0.0097924215626
    y: -0.00910290941481
    z: 0.579065938931
  orientation: 
    x: -0.0132979347234
    y: -0.997516499271
    z: -0.0514844854893
    w: 0.0461881626363
---
header: 
  seq: 2025
  stamp: 
    secs: 1565216633
    nsecs: 716074466
  frame_id: "/stereo/left"
pose: 
  position: 
    x: -0.00997784813127
    y: -0.00913860803813
    z: 0.580507222969
  orientation: 
    x: -0.0131150183537
    y: -0.997665209042
    z: -0.0476421875062
    w: 0.0471417960074
---
header: 
  seq: 2026
  stamp: 
    secs: 1565216634
    nsecs: 313392639
  frame_id: "/stereo/left"
pose: 
  position: 
    x: -0.00993802174696
    y: -0.00912460538303
    z: 0.580644445315
  orientation: 
    x: -0.0132595480005
    y: -0.997656183418
    z: -0.0477614008384
    w: 0.0471717358746
---
header: 
  seq: 2027
  stamp: 
    secs: 1565216635
    nsecs: 501416206
  frame_id: "/stereo/left"
pose: 
  position: 
    x: -0.00981774243003
    y: -0.0091158135751
    z: 0.579386375423
  orientation: 
    x: -0.0128881719287
    y: -0.997352799974
    z: -0.0519205784419
    w: 0.0492497811395
---
header: 
  seq: 2028
  stamp: 
    secs: 1565216636
    nsecs:  79975128
  frame_id: "/stereo/left"
pose: 
  position: 
    x: -0.00966791784857
    y: -0.00915751997494
    z: 0.578434428343
  orientation: 
    x: -0.0129320470617
    y: -0.997327235167
    z: -0.0526119410239
    w: 0.0490217483927
---
header: 
  seq: 2029
  stamp: 
    secs: 1565216636
    nsecs: 675688505
  frame_id: "/stereo/left"
pose: 
  position: 
    x: -0.00978908652028
    y: -0.0090707104536
    z: 0.579147773057
  orientation: 
    x: -0.0128409085655
    y: -0.997301236701
    z: -0.0540296074509
    w: 0.0480224516376
---
header: 
  seq: 2030
  stamp: 
    secs: 1565216637
    nsecs: 241512060
  frame_id: "/stereo/left"
pose: 
  position: 
    x: -0.00978558247693
    y: -0.0090516478196
    z: 0.579261339931
  orientation: 
    x: -0.0130387758325
    y: -0.997256093202
    z: -0.0536702812712
    w: 0.049292756107
---
header: 
  seq: 2031
  stamp: 
    secs: 1565216638
    nsecs: 403097867
  frame_id: "/stereo/left"
pose: 
  position: 
    x: -0.00970245624879
    y: -0.00914647640417
    z: 0.579159804937
  orientation: 
    x: -0.0127208228183
    y: -0.99739126591
    z: -0.0515271350028
    w: 0.0489264520689
---
header: 
  seq: 2032
  stamp: 
    secs: 1565216638
    nsecs: 969583988
  frame_id: "/stereo/left"
pose: 
  position: 
    x: -0.00988143032643
    y: -0.00911088141514
    z: 0.580184809246
  orientation: 
    x: -0.0127524826871
    y: -0.997343511148
    z: -0.052339042759
    w: 0.0490297823633
---
header: 
  seq: 2033
  stamp: 
    secs: 1565216639
    nsecs: 537055015
  frame_id: "/stereo/left"
pose: 
  position: 
    x: -0.00984173062717
    y: -0.0091379651526
    z: 0.579730154702
  orientation: 
    x: -0.0127806348121
    y: -0.997481522773
    z: -0.0500410141211
    w: 0.0486123853174
---
header: 
  seq: 2034
  stamp: 
    secs: 1565216640
    nsecs: 749808311
  frame_id: "/stereo/left"
pose: 
  position: 
    x: -0.00973474346674
    y: -0.00912841677789
    z: 0.5787162109
  orientation: 
    x: -0.0129241280701
    y: -0.997349622942
    z: -0.0527601339927
    w: 0.0484052145151
---
header: 
  seq: 2035
  stamp: 
    secs: 1565216641
    nsecs: 334156513
  frame_id: "/stereo/left"
pose: 
  position: 
    x: -0.00977459272059
    y: -0.00909135176551
    z: 0.578394684001
  orientation: 
    x: -0.0127359167895
    y: -0.997238002387
    z: -0.0545865761447
    w: 0.0487285206424
---
header: 
  seq: 2036
  stamp: 
    secs: 1565216641
    nsecs: 934913873
  frame_id: "/stereo/left"
pose: 
  position: 
    x: -0.00973815663222
    y: -0.00908416563306
    z: 0.577420327964
  orientation: 
    x: -0.0126739760149
    y: -0.997128931003
    z: -0.0558323490388
    w: 0.0495581889218
---
header: 
  seq: 2037
  stamp: 
    secs: 1565216642
    nsecs: 504755973
  frame_id: "/stereo/left"
pose: 
  position: 
    x: -0.00977118934348
    y: -0.00907213814564
    z: 0.578983480589
  orientation: 
    x: -0.0129810562758
    y: -0.997304450716
    z: -0.0539060162696
    w: 0.0480569055335
---
header: 
  seq: 2038
  stamp: 
    secs: 1565216643
    nsecs: 725329637
  frame_id: "/stereo/left"
pose: 
  position: 
    x: -0.00986041793983
    y: -0.00911361241424
    z: 0.579139637567
  orientation: 
    x: -0.0128621062399
    y: -0.997359474049
    z: -0.0515561689157
    w: 0.0495036078841
---
header: 
  seq: 2039
  stamp: 
    secs: 1565216644
    nsecs: 288269996
  frame_id: "/stereo/left"
pose: 
  position: 
    x: -0.00994116191466
    y: -0.00914857753012
    z: 0.579828633495
  orientation: 
    x: -0.0130671506333
    y: -0.997560041095
    z: -0.0499666893468
    w: 0.046973864445
---
header: 
  seq: 2040
  stamp: 
    secs: 1565216644
    nsecs: 870770931
  frame_id: "/stereo/left"
pose: 
  position: 
    x: -0.0098246191788
    y: -0.00910979051644
    z: 0.579329641081
  orientation: 
    x: -0.0129909759816
    y: -0.99750127677
    z: -0.050206408399
    w: 0.0479765978372
---
header: 
  seq: 2041
  stamp: 
    secs: 1565216645
    nsecs: 480639934
  frame_id: "/stereo/left"
pose: 
  position: 
    x: -0.00974002507848
    y: -0.00912290617332
    z: 0.578506054685
  orientation: 
    x: -0.0127890737361
    y: -0.997335788409
    z: -0.0528492134604
    w: 0.0486284421636
---
header: 
  seq: 2042
  stamp: 
    secs: 1565216646
    nsecs: 624902963
  frame_id: "/stereo/left"
pose: 
  position: 
    x: -0.00976152981595
    y: -0.00905151640998
    z: 0.578212827347
  orientation: 
    x: -0.0130509154781
    y: -0.997115184909
    z: -0.0552095357669
    w: 0.0504270640674
---
header: 
  seq: 2043
  stamp: 
    secs: 1565216647
    nsecs: 269372463
  frame_id: "/stereo/left"
pose: 
  position: 
    x: -0.00974392820994
    y: -0.00911222687589
    z: 0.578713190414
  orientation: 
    x: -0.0125956793302
    y: -0.997293736483
    z: -0.0535744625995
    w: 0.0487476049875
---
header: 
  seq: 2044
  stamp: 
    secs: 1565216647
    nsecs: 836745500
  frame_id: "/stereo/left"
pose: 
  position: 
    x: -0.00981642267873
    y: -0.00915164055284
    z: 0.579248204729
  orientation: 
    x: -0.0126233301806
    y: -0.99743549983
    z: -0.0511138338042
    w: 0.0484814522053
---
header: 
  seq: 2045
  stamp: 
    secs: 1565216648
    nsecs: 414118289
  frame_id: "/stereo/left"
pose: 
  position: 
    x: -0.00972864535183
    y: -0.00913439518885
    z: 0.578916510965
  orientation: 
    x: -0.0125848911064
    y: -0.997337538133
    z: -0.0529826708535
    w: 0.0485004343825
---
header: 
  seq: 2046
  stamp: 
    secs: 1565216649
    nsecs: 601568460
  frame_id: "/stereo/left"
pose: 
  position: 
    x: -0.00979043787195
    y: -0.00910829535469
    z: 0.579195876668
  orientation: 
    x: -0.0127361581822
    y: -0.997342165542
    z: -0.0529498062016
    w: 0.0484015818945
---
header: 
  seq: 2047
  stamp: 
    secs: 1565216650
    nsecs: 174567222
  frame_id: "/stereo/left"
pose: 
  position: 
    x: -0.00976172662967
    y: -0.00913907273967
    z: 0.578980509341
  orientation: 
    x: -0.0127813425972
    y: -0.997349220778
    z: -0.0539489210678
    w: 0.0471241234533
---
header: 
  seq: 2048
  stamp: 
    secs: 1565216650
    nsecs: 807016611
  frame_id: "/stereo/left"
pose: 
  position: 
    x: -0.00974243764399
    y: -0.00906697748057
    z: 0.578931840226
  orientation: 
    x: -0.013582133368
    y: -0.997428892438
    z: -0.0521591564459
    w: 0.0472287262295
---
header: 
  seq: 2049
  stamp: 
    secs: 1565216651
    nsecs: 363012790
  frame_id: "/stereo/left"
pose: 
  position: 
    x: -0.00974583405705
    y: -0.00914215649515
    z: 0.579198791787
  orientation: 
    x: -0.0130338741018
    y: -0.997407227
    z: -0.05216026612
    w: 0.0478356383021
---
header: 
  seq: 2050
  stamp: 
    secs: 1565216652
    nsecs: 550215721
  frame_id: "/stereo/left"
pose: 
  position: 
    x: -0.00978701734605
    y: -0.00915312257906
    z: 0.578939294963
  orientation: 
    x: -0.0129410051321
    y: -0.997394625348
    z: -0.0533307551133
    w: 0.0468222412131
---
header: 
  seq: 2051
  stamp: 
    secs: 1565216653
    nsecs: 121449232
  frame_id: "/stereo/left"
pose: 
  position: 
    x: -0.00970212157715
    y: -0.00910689641459
    z: 0.578770897613
  orientation: 
    x: -0.0126583930213
    y: -0.997297582116
    z: -0.0549443879768
    w: 0.0471000214536
---
header: 
  seq: 2052
  stamp: 
    secs: 1565216653
    nsecs: 687451839
  frame_id: "/stereo/left"
pose: 
  position: 
    x: -0.00982721322806
    y: -0.00907863136274
    z: 0.580246173662
  orientation: 
    x: -0.0128058375892
    y: -0.99744511414
    z: -0.0520520167582
    w: 0.0472212066098
---
header: 
  seq: 2053
  stamp: 
    secs: 1565216654
    nsecs: 846837759
  frame_id: "/stereo/left"
pose: 
  position: 
    x: -0.00969513801929
    y: -0.00916504541455
    z: 0.578759304452
  orientation: 
    x: -0.0129732473936
    y: -0.99736199145
    z: -0.0524422379478
    w: 0.0484826210246
---
header: 
  seq: 2054
  stamp: 
    secs: 1565216655
    nsecs: 416086435
  frame_id: "/stereo/left"
pose: 
  position: 
    x: -0.00973644553222
    y: -0.00911790878749
    z: 0.578729200912
  orientation: 
    x: -0.0126628605034
    y: -0.997295736083
    z: -0.0545674449814
    w: 0.0475737396355
---
header: 
  seq: 2055
  stamp: 
    secs: 1565216656
    nsecs:  62142848
  frame_id: "/stereo/left"
pose: 
  position: 
    x: -0.00976549243968
    y: -0.00906785978749
    z: 0.579098288353
  orientation: 
    x: -0.013140802811
    y: -0.99726862771
    z: -0.0535031307045
    w: 0.0491936834531
---
header: 
  seq: 2056
  stamp: 
    secs: 1565216656
    nsecs: 635569572
  frame_id: "/stereo/left"
pose: 
  position: 
    x: -0.00965701580913
    y: -0.00909685859163
    z: 0.577966548731
  orientation: 
    x: -0.0133721356787
    y: -0.997076210788
    z: -0.0577797170528
    w: 0.048184231505
---
header: 
  seq: 2057
  stamp: 
    secs: 1565216657
    nsecs: 818188428
  frame_id: "/stereo/left"
pose: 
  position: 
    x: -0.00977041342766
    y: -0.00914143670859
    z: 0.579733025629
  orientation: 
    x: -0.0132635024461
    y: -0.997478539712
    z: -0.0514258945057
    w: 0.0470746183337
---
header: 
  seq: 2058
  stamp: 
    secs: 1565216658
    nsecs: 378683090
  frame_id: "/stereo/left"
pose: 
  position: 
    x: -0.00978454896792
    y: -0.00911284437685
    z: 0.579528982118
  orientation: 
    x: -0.0132566197627
    y: -0.997531879072
    z: -0.05027940234
    w: 0.047184679379
---
header: 
  seq: 2059
  stamp: 
    secs: 1565216658
    nsecs: 948029994
  frame_id: "/stereo/left"
pose: 
  position: 
    x: -0.00987548743245
    y: -0.00913236690424
    z: 0.580150623843
  orientation: 
    x: -0.0129012265382
    y: -0.997504445283
    z: -0.0514750075778
    w: 0.046569985925
---
header: 
  seq: 2060
  stamp: 
    secs: 1565216660
    nsecs: 106619358
  frame_id: "/stereo/left"
pose: 
  position: 
    x: -0.00980630816944
    y: -0.00910660866378
    z: 0.579164601804
  orientation: 
    x: -0.0130176388605
    y: -0.997465547748
    z: -0.0520438185749
    w: 0.0467382400486
---
header: 
  seq: 2061
  stamp: 
    secs: 1565216660
    nsecs: 674674034
  frame_id: "/stereo/left"
pose: 
  position: 
    x: -0.00971106280338
    y: -0.00909813527041
    z: 0.577498140925
  orientation: 
    x: -0.0126556919137
    y: -0.997031360418
    z: -0.0576974785311
    w: 0.0493892779492
---
header: 
  seq: 2062
  stamp: 
    secs: 1565216661
    nsecs: 276007413
  frame_id: "/stereo/left"
pose: 
  position: 
    x: -0.00982974489052
    y: -0.00911240426229
    z: 0.579163584079
  orientation: 
    x: -0.0127386300437
    y: -0.997341628839
    z: -0.0513317974349
    w: 0.0501243380122
---
header: 
  seq: 2063
  stamp: 
    secs: 1565216661
    nsecs: 843516588
  frame_id: "/stereo/left"
pose: 
  position: 
    x: -0.00975632181784
    y: -0.00910270843256
    z: 0.578760513033
  orientation: 
    x: -0.0126871166692
    y: -0.997215673822
    z: -0.0538322166358
    w: 0.0500202899444
---
