header: 
  seq: 3436
  stamp: 
    secs: 1565217685
    nsecs: 856600761
  frame_id: "/stereo/left"
pose: 
  position: 
    x: 0.238988984378
    y: -0.0104288169639
    z: 0.528085223102
  orientation: 
    x: -0.00358234257755
    y: 0.999923951304
    z: 0.00576291005451
    w: 0.0102979268953
---
header: 
  seq: 3437
  stamp: 
    secs: 1565217686
    nsecs: 473622083
  frame_id: "/stereo/left"
pose: 
  position: 
    x: 0.238410049809
    y: -0.0103409444531
    z: 0.526852297949
  orientation: 
    x: -0.00296499510604
    y: 0.999876538494
    z: 0.0051644077831
    w: 0.0145411645165
---
header: 
  seq: 3438
  stamp: 
    secs: 1565217687
    nsecs:  40817260
  frame_id: "/stereo/left"
pose: 
  position: 
    x: 0.23828636953
    y: -0.0102827149424
    z: 0.526081909797
  orientation: 
    x: -0.0025664667913
    y: 0.999852614209
    z: 0.00440004427983
    w: 0.0163952041446
---
header: 
  seq: 3439
  stamp: 
    secs: 1565217688
    nsecs: 237686872
  frame_id: "/stereo/left"
pose: 
  position: 
    x: 0.239032299844
    y: -0.0104044302381
    z: 0.528204883042
  orientation: 
    x: -0.00216461776933
    y: 0.999910159498
    z: 0.00708393235042
    w: 0.0111716277253
---
header: 
  seq: 3440
  stamp: 
    secs: 1565217688
    nsecs: 805550575
  frame_id: "/stereo/left"
pose: 
  position: 
    x: 0.238250520633
    y: -0.0102944682424
    z: 0.526360568429
  orientation: 
    x: -0.00250953937674
    y: 0.999848916324
    z: 0.00530924680774
    w: 0.0163602761893
---
header: 
  seq: 3441
  stamp: 
    secs: 1565217689
    nsecs: 421682596
  frame_id: "/stereo/left"
pose: 
  position: 
    x: 0.236989205652
    y: -0.008874751571
    z: 0.52059109212
  orientation: 
    x: 0.0040834514093
    y: 0.999808753255
    z: -0.00108564211917
    w: 0.0190945992316
---
header: 
  seq: 3442
  stamp: 
    secs: 1565217689
    nsecs: 986252546
  frame_id: "/stereo/left"
pose: 
  position: 
    x: 0.237562624967
    y: -0.00972001664744
    z: 0.522670116859
  orientation: 
    x: 0.00256697924983
    y: 0.999800732887
    z: 0.00617872032816
    w: 0.0188076726858
---
header: 
  seq: 3443
  stamp: 
    secs: 1565217691
    nsecs: 193621635
  frame_id: "/stereo/left"
pose: 
  position: 
    x: 0.237446223667
    y: -0.00974763094985
    z: 0.522682739661
  orientation: 
    x: 0.00209567283398
    y: 0.999779732882
    z: 0.00493810614139
    w: 0.0202906131271
---
header: 
  seq: 3444
  stamp: 
    secs: 1565217691
    nsecs: 765854120
  frame_id: "/stereo/left"
pose: 
  position: 
    x: 0.23749354383
    y: -0.00965048232988
    z: 0.522612375905
  orientation: 
    x: 0.00168819908466
    y: 0.999829483558
    z: 0.00416259330115
    w: 0.0179116333285
---
header: 
  seq: 3445
  stamp: 
    secs: 1565217692
    nsecs: 338413000
  frame_id: "/stereo/left"
pose: 
  position: 
    x: 0.238888709112
    y: -0.0103857727982
    z: 0.527833548636
  orientation: 
    x: -0.00254252017377
    y: 0.999889360166
    z: 0.00713679857369
    w: 0.0128011376421
---
header: 
  seq: 3446
  stamp: 
    secs: 1565217693
    nsecs: 507749557
  frame_id: "/stereo/left"
pose: 
  position: 
    x: 0.238301484199
    y: -0.0102724120926
    z: 0.526159620346
  orientation: 
    x: -0.00241002147018
    y: 0.999836856953
    z: 0.00527424824386
    w: 0.0171065361698
---
header: 
  seq: 3447
  stamp: 
    secs: 1565217694
    nsecs:  75335025
  frame_id: "/stereo/left"
pose: 
  position: 
    x: 0.239129058232
    y: -0.0103751231038
    z: 0.528397766175
  orientation: 
    x: -0.00218300555981
    y: 0.999886123655
    z: 0.00786010368825
    w: 0.0126961797014
---
header: 
  seq: 3448
  stamp: 
    secs: 1565217694
    nsecs: 666309595
  frame_id: "/stereo/left"
pose: 
  position: 
    x: 0.238902681395
    y: -0.0104435566853
    z: 0.527869301009
  orientation: 
    x: -0.00210049484479
    y: 0.999909359417
    z: 0.00657837947341
    w: 0.0115579321516
---
header: 
  seq: 3449
  stamp: 
    secs: 1565217695
    nsecs: 239630222
  frame_id: "/stereo/left"
pose: 
  position: 
    x: 0.23829155093
    y: -0.0103403081453
    z: 0.526261859611
  orientation: 
    x: -0.00230510522575
    y: 0.999844456201
    z: 0.00505051266848
    w: 0.0167404365563
---
header: 
  seq: 3450
  stamp: 
    secs: 1565217696
    nsecs: 405647993
  frame_id: "/stereo/left"
pose: 
  position: 
    x: 0.2386872097
    y: -0.0103433906324
    z: 0.527459812335
  orientation: 
    x: -0.00242992722214
    y: 0.999904664686
    z: 0.00716095975429
    w: 0.0115532527534
---
header: 
  seq: 3451
  stamp: 
    secs: 1565217696
    nsecs: 972794294
  frame_id: "/stereo/left"
pose: 
  position: 
    x: 0.238262191787
    y: -0.0102700255922
    z: 0.526234494335
  orientation: 
    x: -0.00280593891778
    y: 0.999849447036
    z: 0.00472260098111
    w: 0.0164592529746
---
header: 
  seq: 3452
  stamp: 
    secs: 1565217697
    nsecs: 538629293
  frame_id: "/stereo/left"
pose: 
  position: 
    x: 0.237457120552
    y: -0.00976267851188
    z: 0.522499001643
  orientation: 
    x: 0.00305393301138
    y: 0.999780883415
    z: 0.00794262932161
    w: 0.0191252004244
---
header: 
  seq: 3453
  stamp: 
    secs: 1565217698
    nsecs: 700496912
  frame_id: "/stereo/left"
pose: 
  position: 
    x: 0.238293486319
    y: -0.0103135302791
    z: 0.52635437949
  orientation: 
    x: -0.00239632229257
    y: 0.999852476592
    z: 0.00531683689895
    w: 0.0161559258033
---
header: 
  seq: 3454
  stamp: 
    secs: 1565217699
    nsecs: 275968074
  frame_id: "/stereo/left"
pose: 
  position: 
    x: 0.236377438383
    y: -0.00840474272114
    z: 0.518711961336
  orientation: 
    x: 0.00468604454129
    y: 0.999730796835
    z: -0.00610999623266
    w: 0.0218870462251
---
header: 
  seq: 3455
  stamp: 
    secs: 1565217699
    nsecs: 907262325
  frame_id: "/stereo/left"
pose: 
  position: 
    x: 0.238597392051
    y: -0.0103892701975
    z: 0.527208953918
  orientation: 
    x: -0.00283064943136
    y: 0.999892428916
    z: 0.00651721577273
    w: 0.0128313646452
---
header: 
  seq: 3456
  stamp: 
    secs: 1565217700
    nsecs: 467042684
  frame_id: "/stereo/left"
pose: 
  position: 
    x: 0.238915831017
    y: -0.0103354852204
    z: 0.527953559514
  orientation: 
    x: -0.00290750929896
    y: 0.999912530322
    z: 0.00555308026416
    w: 0.011646518578
---
header: 
  seq: 3457
  stamp: 
    secs: 1565217701
    nsecs: 661662817
  frame_id: "/stereo/left"
pose: 
  position: 
    x: 0.237125811431
    y: -0.00920094992894
    z: 0.521175025978
  orientation: 
    x: 0.00357188465712
    y: 0.999803247474
    z: -0.000819518184484
    w: 0.0194945215382
---
header: 
  seq: 3458
  stamp: 
    secs: 1565217702
    nsecs: 234989404
  frame_id: "/stereo/left"
pose: 
  position: 
    x: 0.237505245961
    y: -0.00974952483285
    z: 0.522683672605
  orientation: 
    x: 0.00210962656275
    y: 0.999834490308
    z: 0.00469316790824
    w: 0.0174503765209
---
header: 
  seq: 3459
  stamp: 
    secs: 1565217702
    nsecs: 803994655
  frame_id: "/stereo/left"
pose: 
  position: 
    x: 0.239070871457
    y: -0.0104545345521
    z: 0.528140800564
  orientation: 
    x: -0.00300544082842
    y: 0.999894828984
    z: 0.00543271889558
    w: 0.0131066343039
---
header: 
  seq: 3460
  stamp: 
    secs: 1565217703
    nsecs: 439020872
  frame_id: "/stereo/left"
pose: 
  position: 
    x: 0.23741682676
    y: -0.00975633175663
    z: 0.522381868029
  orientation: 
    x: 0.002009166013
    y: 0.999833650331
    z: 0.00508899933163
    w: 0.0173993391858
---
header: 
  seq: 3461
  stamp: 
    secs: 1565217704
    nsecs: 585262060
  frame_id: "/stereo/left"
pose: 
  position: 
    x: 0.237673330271
    y: -0.00975954563564
    z: 0.523147868244
  orientation: 
    x: 0.00271218482644
    y: 0.999809061489
    z: 0.00597630863161
    w: 0.0184056608803
---
header: 
  seq: 3462
  stamp: 
    secs: 1565217705
    nsecs: 192953348
  frame_id: "/stereo/left"
pose: 
  position: 
    x: 0.238761362758
    y: -0.0104614587951
    z: 0.527564755111
  orientation: 
    x: -0.0030091940095
    y: 0.999902098086
    z: 0.00586361570603
    w: 0.0123432980337
---
header: 
  seq: 3463
  stamp: 
    secs: 1565217705
    nsecs: 765877008
  frame_id: "/stereo/left"
pose: 
  position: 
    x: 0.238538623575
    y: -0.0104128655646
    z: 0.526910526965
  orientation: 
    x: -0.00271695984045
    y: 0.999869393436
    z: 0.00623195215956
    w: 0.0146620930163
---
header: 
  seq: 3464
  stamp: 
    secs: 1565217706
    nsecs: 331322908
  frame_id: "/stereo/left"
pose: 
  position: 
    x: 0.237475291636
    y: -0.00978076591106
    z: 0.522701454215
  orientation: 
    x: 0.00148621026675
    y: 0.999824921057
    z: 0.00374491823613
    w: 0.0182727665979
---
header: 
  seq: 3465
  stamp: 
    secs: 1565217707
    nsecs: 494350910
  frame_id: "/stereo/left"
pose: 
  position: 
    x: 0.238414513904
    y: -0.0103278302442
    z: 0.526541124966
  orientation: 
    x: -0.00254218484565
    y: 0.99988440755
    z: 0.00522644313023
    w: 0.0140496664402
---
header: 
  seq: 3466
  stamp: 
    secs: 1565217708
    nsecs:  59994697
  frame_id: "/stereo/left"
pose: 
  position: 
    x: 0.237467941673
    y: -0.00976609145481
    z: 0.522759969573
  orientation: 
    x: 0.00166310005436
    y: 0.999816960899
    z: 0.00436510802601
    w: 0.0185532915943
---
header: 
  seq: 3467
  stamp: 
    secs: 1565217708
    nsecs: 648815631
  frame_id: "/stereo/left"
pose: 
  position: 
    x: 0.239075101301
    y: -0.0104057041702
    z: 0.528292855334
  orientation: 
    x: -0.00257582419828
    y: 0.999905292787
    z: 0.00702524433614
    w: 0.0115506072613
---
header: 
  seq: 3468
  stamp: 
    secs: 1565217709
    nsecs: 800438165
  frame_id: "/stereo/left"
pose: 
  position: 
    x: 0.238876881924
    y: -0.0103040303732
    z: 0.527820060846
  orientation: 
    x: -0.00248796402776
    y: 0.999892629493
    z: 0.00765225088205
    w: 0.0122467374249
---
header: 
  seq: 3469
  stamp: 
    secs: 1565217710
    nsecs: 436998844
  frame_id: "/stereo/left"
pose: 
  position: 
    x: 0.237212020512
    y: -0.00945604399519
    z: 0.521437341899
  orientation: 
    x: 0.00304260988604
    y: 0.999819707839
    z: 0.00291701344685
    w: 0.0185144639423
---
header: 
  seq: 3470
  stamp: 
    secs: 1565217711
    nsecs:  15271663
  frame_id: "/stereo/left"
pose: 
  position: 
    x: 0.238756536918
    y: -0.0103408429642
    z: 0.527505750298
  orientation: 
    x: -0.00229177896025
    y: 0.999890128254
    z: 0.00663699332192
    w: 0.0130548645515
---
header: 
  seq: 3471
  stamp: 
    secs: 1565217711
    nsecs: 577381134
  frame_id: "/stereo/left"
pose: 
  position: 
    x: 0.237768158155
    y: -0.0098186071565
    z: 0.523230918998
  orientation: 
    x: 0.00245769462167
    y: 0.999821449142
    z: 0.00617833067235
    w: 0.0176877868209
---
header: 
  seq: 3472
  stamp: 
    secs: 1565217712
    nsecs: 756146907
  frame_id: "/stereo/left"
pose: 
  position: 
    x: 0.238687473291
    y: -0.0103450719324
    z: 0.527437760806
  orientation: 
    x: -0.0024058449075
    y: 0.999902226552
    z: 0.00581131692391
    w: 0.0124891089742
---
header: 
  seq: 3473
  stamp: 
    secs: 1565217713
    nsecs: 328219175
  frame_id: "/stereo/left"
pose: 
  position: 
    x: 0.238399211893
    y: -0.0102812640973
    z: 0.526322540635
  orientation: 
    x: -0.00256849027661
    y: 0.999841587558
    z: 0.00513784547235
    w: 0.0168465186703
---
header: 
  seq: 3474
  stamp: 
    secs: 1565217713
    nsecs: 927062034
  frame_id: "/stereo/left"
pose: 
  position: 
    x: 0.237578908755
    y: -0.00992277660412
    z: 0.523103834459
  orientation: 
    x: 0.00128585034963
    y: 0.999797391528
    z: 0.00567412611737
    w: 0.0192698410873
---
