header: 
  seq: 5290
  stamp: 
    secs: 1565219148
    nsecs: 310052871
  frame_id: "/stereo/left"
pose: 
  position: 
    x: -0.0597687122493
    y: -0.00765199305538
    z: 0.58547896146
  orientation: 
    x: -0.0148814877356
    y: -0.997626840263
    z: -0.0670737210705
    w: 0.00451052669494
---
header: 
  seq: 5291
  stamp: 
    secs: 1565219148
    nsecs: 951215744
  frame_id: "/stereo/left"
pose: 
  position: 
    x: -0.059725349558
    y: -0.00768775947702
    z: 0.585198688879
  orientation: 
    x: -0.0148468649064
    y: -0.997608957874
    z: -0.0674038287122
    w: 0.00355832076857
---
header: 
  seq: 5292
  stamp: 
    secs: 1565219149
    nsecs: 533977985
  frame_id: "/stereo/left"
pose: 
  position: 
    x: -0.0597232496838
    y: -0.00769998097648
    z: 0.585281168616
  orientation: 
    x: -0.014420743501
    y: -0.997561771924
    z: -0.0682551331694
    w: 0.00194683067895
---
header: 
  seq: 5293
  stamp: 
    secs: 1565219150
    nsecs: 150651454
  frame_id: "/stereo/left"
pose: 
  position: 
    x: -0.0596204859376
    y: -0.00771542334386
    z: 0.585086895861
  orientation: 
    x: -0.0143926938517
    y: -0.997508479165
    z: -0.0689660331271
    w: 0.00365658751224
---
header: 
  seq: 5294
  stamp: 
    secs: 1565219151
    nsecs: 277937650
  frame_id: "/stereo/left"
pose: 
  position: 
    x: -0.0592871152792
    y: -0.00783874061367
    z: 0.582780618454
  orientation: 
    x: -0.0146343583366
    y: -0.997321259141
    z: -0.071005177089
    w: 0.00971629810161
---
header: 
  seq: 5295
  stamp: 
    secs: 1565219151
    nsecs: 884760379
  frame_id: "/stereo/left"
pose: 
  position: 
    x: -0.0592928101734
    y: -0.00783258734821
    z: 0.583144251835
  orientation: 
    x: -0.0147178811273
    y: -0.997214624286
    z: -0.0725016411907
    w: 0.0094809867665
---
header: 
  seq: 5296
  stamp: 
    secs: 1565219152
    nsecs: 452217817
  frame_id: "/stereo/left"
pose: 
  position: 
    x: -0.0592756455451
    y: -0.00780190322772
    z: 0.582906199235
  orientation: 
    x: -0.0143528050149
    y: -0.997195719096
    z: -0.0729789351283
    w: 0.00829275785247
---
header: 
  seq: 5297
  stamp: 
    secs: 1565219153
    nsecs:  14459133
  frame_id: "/stereo/left"
pose: 
  position: 
    x: -0.0592124421054
    y: -0.00783790388236
    z: 0.582526393121
  orientation: 
    x: -0.0141552841076
    y: -0.997156922991
    z: -0.0732149678797
    w: 0.0108290046459
---
header: 
  seq: 5298
  stamp: 
    secs: 1565219154
    nsecs: 192223787
  frame_id: "/stereo/left"
pose: 
  position: 
    x: -0.0593644756438
    y: -0.00781850994523
    z: 0.583326540546
  orientation: 
    x: -0.0144766891197
    y: -0.997345411835
    z: -0.0710737414639
    w: 0.00640923074178
---
header: 
  seq: 5299
  stamp: 
    secs: 1565219154
    nsecs: 756256818
  frame_id: "/stereo/left"
pose: 
  position: 
    x: -0.0593046630817
    y: -0.00781126561959
    z: 0.583003845204
  orientation: 
    x: -0.0141569712296
    y: -0.997342230933
    z: -0.0706973678793
    w: 0.0104850721863
---
header: 
  seq: 5300
  stamp: 
    secs: 1565219155
    nsecs: 355854749
  frame_id: "/stereo/left"
pose: 
  position: 
    x: -0.0591896711591
    y: -0.00785399667961
    z: 0.582200497279
  orientation: 
    x: -0.0142035600297
    y: -0.997130816748
    z: -0.0738128326397
    w: 0.008947564587
---
header: 
  seq: 5301
  stamp: 
    secs: 1565219156
    nsecs: 503749132
  frame_id: "/stereo/left"
pose: 
  position: 
    x: -0.0594316177587
    y: -0.00781091698761
    z: 0.583490474982
  orientation: 
    x: -0.0144297262867
    y: -0.997245951766
    z: -0.072294556199
    w: 0.00811121631845
---
header: 
  seq: 5302
  stamp: 
    secs: 1565219157
    nsecs: 143483877
  frame_id: "/stereo/left"
pose: 
  position: 
    x: -0.0592827905357
    y: -0.00786146256474
    z: 0.583345500936
  orientation: 
    x: -0.0143673358661
    y: -0.997230756684
    z: -0.0722876672381
    w: 0.00994438275791
---
header: 
  seq: 5303
  stamp: 
    secs: 1565219157
    nsecs: 712511777
  frame_id: "/stereo/left"
pose: 
  position: 
    x: -0.059180111697
    y: -0.00786571295528
    z: 0.582565843403
  orientation: 
    x: -0.0148107233696
    y: -0.997065644268
    z: -0.0743305069024
    w: 0.010757287661
---
header: 
  seq: 5304
  stamp: 
    secs: 1565219158
    nsecs: 301732301
  frame_id: "/stereo/left"
pose: 
  position: 
    x: -0.0592143551568
    y: -0.00787663256927
    z: 0.582828770679
  orientation: 
    x: -0.0145350312602
    y: -0.997102513349
    z: -0.0740019878767
    w: 0.0099507049682
---
header: 
  seq: 5305
  stamp: 
    secs: 1565219159
    nsecs: 519365310
  frame_id: "/stereo/left"
pose: 
  position: 
    x: -0.0592013291434
    y: -0.00786408345591
    z: 0.582059475392
  orientation: 
    x: -0.0143880857026
    y: -0.997117853102
    z: -0.0738274170524
    w: 0.00992383528845
---
header: 
  seq: 5306
  stamp: 
    secs: 1565219160
    nsecs:  94505786
  frame_id: "/stereo/left"
pose: 
  position: 
    x: -0.0592926087677
    y: -0.00783949683089
    z: 0.582708205847
  orientation: 
    x: -0.0147514779317
    y: -0.997262005746
    z: -0.0719705716138
    w: 0.00843342257885
---
header: 
  seq: 5307
  stamp: 
    secs: 1565219160
    nsecs: 700969219
  frame_id: "/stereo/left"
pose: 
  position: 
    x: -0.0593009235404
    y: -0.00784603144754
    z: 0.582910753083
  orientation: 
    x: -0.0146102947349
    y: -0.997164272639
    z: -0.0729533168573
    w: 0.011303372066
---
header: 
  seq: 5308
  stamp: 
    secs: 1565219161
    nsecs: 281775951
  frame_id: "/stereo/left"
pose: 
  position: 
    x: -0.05924599258
    y: -0.00786664437769
    z: 0.582430214528
  orientation: 
    x: -0.014475810171
    y: -0.997223159566
    z: -0.0724919797989
    w: 0.00901852589754
---
header: 
  seq: 5309
  stamp: 
    secs: 1565219162
    nsecs: 495954275
  frame_id: "/stereo/left"
pose: 
  position: 
    x: -0.0592735160692
    y: -0.00786682825736
    z: 0.58245968526
  orientation: 
    x: -0.0146862710475
    y: -0.997298296516
    z: -0.0713428548985
    w: 0.00951936255773
---
header: 
  seq: 5310
  stamp: 
    secs: 1565219163
    nsecs:  64096212
  frame_id: "/stereo/left"
pose: 
  position: 
    x: -0.0590944119646
    y: -0.00788814156321
    z: 0.581679046281
  orientation: 
    x: -0.0137617937632
    y: -0.996926680245
    z: -0.0763517012048
    w: 0.0108731307365
---
header: 
  seq: 5311
  stamp: 
    secs: 1565219163
    nsecs: 637144565
  frame_id: "/stereo/left"
pose: 
  position: 
    x: -0.0591490240689
    y: -0.00789371187237
    z: 0.581956356036
  orientation: 
    x: -0.0147400106813
    y: -0.997175584807
    z: -0.0728479246278
    w: 0.0108057867772
---
header: 
  seq: 5312
  stamp: 
    secs: 1565219164
    nsecs: 238421916
  frame_id: "/stereo/left"
pose: 
  position: 
    x: -0.0590577772078
    y: -0.00786718092565
    z: 0.581451396791
  orientation: 
    x: -0.0140980118318
    y: -0.996997579373
    z: -0.0750622820551
    w: 0.0127564336356
---
header: 
  seq: 5313
  stamp: 
    secs: 1565219165
    nsecs: 382331132
  frame_id: "/stereo/left"
pose: 
  position: 
    x: -0.0593347368741
    y: -0.00780861490445
    z: 0.582977175586
  orientation: 
    x: -0.0141325725549
    y: -0.997192055979
    z: -0.0730082164449
    w: 0.00883596154569
---
header: 
  seq: 5314
  stamp: 
    secs: 1565219166
    nsecs:  26288509
  frame_id: "/stereo/left"
pose: 
  position: 
    x: -0.0592195669465
    y: -0.0078158968662
    z: 0.582571732985
  orientation: 
    x: -0.0141311262751
    y: -0.997092845908
    z: -0.0744718441583
    w: 0.00775321457981
---
header: 
  seq: 5315
  stamp: 
    secs: 1565219166
    nsecs: 591989755
  frame_id: "/stereo/left"
pose: 
  position: 
    x: -0.0592249114215
    y: -0.00786922715921
    z: 0.582588811025
  orientation: 
    x: -0.0142443299291
    y: -0.997208368009
    z: -0.0728854371592
    w: 0.00776420560962
---
header: 
  seq: 5316
  stamp: 
    secs: 1565219167
    nsecs: 168869256
  frame_id: "/stereo/left"
pose: 
  position: 
    x: -0.059303599154
    y: -0.00780674755805
    z: 0.582649174282
  orientation: 
    x: -0.0145726290307
    y: -0.997329428475
    z: -0.0711749727282
    w: 0.00746812143591
---
header: 
  seq: 5317
  stamp: 
    secs: 1565219168
    nsecs: 337252140
  frame_id: "/stereo/left"
pose: 
  position: 
    x: -0.0591112756889
    y: -0.00784279730256
    z: 0.581892784972
  orientation: 
    x: -0.0142720078937
    y: -0.997016581111
    z: -0.0751700847241
    w: 0.0101835722155
---
header: 
  seq: 5318
  stamp: 
    secs: 1565219168
    nsecs: 903708696
  frame_id: "/stereo/left"
pose: 
  position: 
    x: -0.0591074757151
    y: -0.00784808589631
    z: 0.581836935779
  orientation: 
    x: -0.014594240928
    y: -0.99715084226
    z: -0.0733342582181
    w: 0.00996456138939
---
header: 
  seq: 5319
  stamp: 
    secs: 1565219169
    nsecs: 501173973
  frame_id: "/stereo/left"
pose: 
  position: 
    x: -0.0590148228982
    y: -0.00782853191263
    z: 0.581451321427
  orientation: 
    x: -0.0141496802469
    y: -0.997079364897
    z: -0.0742558572436
    w: 0.0108901014774
---
header: 
  seq: 5320
  stamp: 
    secs: 1565219170
    nsecs: 645420551
  frame_id: "/stereo/left"
pose: 
  position: 
    x: -0.0592335592556
    y: -0.00780738781427
    z: 0.582673036966
  orientation: 
    x: -0.0145024579577
    y: -0.997035055049
    z: -0.0747564220667
    w: 0.0110569017685
---
header: 
  seq: 5321
  stamp: 
    secs: 1565219171
    nsecs: 285866260
  frame_id: "/stereo/left"
pose: 
  position: 
    x: -0.0592102339344
    y: -0.00782243491188
    z: 0.582524014509
  orientation: 
    x: -0.0143003718636
    y: -0.997192282617
    z: -0.0728329258224
    w: 0.00992047226591
---
header: 
  seq: 5322
  stamp: 
    secs: 1565219171
    nsecs: 861329555
  frame_id: "/stereo/left"
pose: 
  position: 
    x: -0.0592487251074
    y: -0.00775790275189
    z: 0.5826649295
  orientation: 
    x: -0.0146185812558
    y: -0.997259346256
    z: -0.0721187047323
    w: 0.00768022227849
---
header: 
  seq: 5323
  stamp: 
    secs: 1565219172
    nsecs: 446687936
  frame_id: "/stereo/left"
pose: 
  position: 
    x: -0.0590054441811
    y: -0.00782810159747
    z: 0.581521305991
  orientation: 
    x: -0.0138259124538
    y: -0.996981143256
    z: -0.0756363806375
    w: 0.010797317268
---
header: 
  seq: 5324
  stamp: 
    secs: 1565219173
    nsecs:  99206209
  frame_id: "/stereo/left"
pose: 
  position: 
    x: -0.0589320328277
    y: -0.00786379868416
    z: 0.581340873287
  orientation: 
    x: -0.0146036306928
    y: -0.996950179286
    z: -0.0757699317209
    w: 0.0116615367094
---
header: 
  seq: 5325
  stamp: 
    secs: 1565219174
    nsecs: 249192953
  frame_id: "/stereo/left"
pose: 
  position: 
    x: -0.0591222918647
    y: -0.00786912380186
    z: 0.582182942505
  orientation: 
    x: -0.0145167330535
    y: -0.997099172087
    z: -0.0740780672538
    w: 0.00974399493753
---
header: 
  seq: 5326
  stamp: 
    secs: 1565219174
    nsecs: 859900236
  frame_id: "/stereo/left"
pose: 
  position: 
    x: -0.0591240005477
    y: -0.00785788526669
    z: 0.582130562576
  orientation: 
    x: -0.0144443075181
    y: -0.997251721261
    z: -0.0720684928019
    w: 0.00930047132399
---
header: 
  seq: 5327
  stamp: 
    secs: 1565219175
    nsecs: 421530961
  frame_id: "/stereo/left"
pose: 
  position: 
    x: -0.0590650808863
    y: -0.00785266368025
    z: 0.582112926483
  orientation: 
    x: -0.0141949410756
    y: -0.997030912964
    z: -0.0748911829745
    w: 0.0109166365672
---
header: 
  seq: 5328
  stamp: 
    secs: 1565219175
    nsecs: 991963148
  frame_id: "/stereo/left"
pose: 
  position: 
    x: -0.0590707500805
    y: -0.00781345602473
    z: 0.581899331152
  orientation: 
    x: -0.0142273595771
    y: -0.997162734565
    z: -0.0730299246104
    w: 0.011432110327
---
header: 
  seq: 5329
  stamp: 
    secs: 1565219177
    nsecs: 145998477
  frame_id: "/stereo/left"
pose: 
  position: 
    x: -0.0593280874348
    y: -0.00784377006637
    z: 0.58342417328
  orientation: 
    x: -0.0146403561815
    y: -0.997253158462
    z: -0.0720362591243
    w: 0.00908709414706
---
