header: 
  seq: 4446
  stamp: 
    secs: 1565218440
    nsecs: 538972377
  frame_id: "/stereo/left"
pose: 
  position: 
    x: -0.0154050305803
    y: 0.0130627811897
    z: 0.438344673834
  orientation: 
    x: -0.0201641158484
    y: -0.998359546723
    z: -0.0525210340204
    w: -0.0106378985464
---
header: 
  seq: 4447
  stamp: 
    secs: 1565218441
    nsecs: 112689495
  frame_id: "/stereo/left"
pose: 
  position: 
    x: -0.0153170471881
    y: 0.0129933005095
    z: 0.438135386987
  orientation: 
    x: -0.0204807052074
    y: -0.998292455016
    z: -0.0531697046556
    w: -0.0128723533117
---
header: 
  seq: 4448
  stamp: 
    secs: 1565218441
    nsecs: 734249353
  frame_id: "/stereo/left"
pose: 
  position: 
    x: -0.0153195405497
    y: 0.0130777892093
    z: 0.438849553119
  orientation: 
    x: -0.0206349177511
    y: -0.998317173863
    z: -0.052652780573
    w: -0.0128337538357
---
header: 
  seq: 4449
  stamp: 
    secs: 1565218442
    nsecs: 313121080
  frame_id: "/stereo/left"
pose: 
  position: 
    x: -0.0153222144348
    y: 0.0131042031927
    z: 0.438901264288
  orientation: 
    x: -0.0206224557877
    y: -0.998355621295
    z: -0.0520325477004
    w: -0.0123847376464
---
header: 
  seq: 4450
  stamp: 
    secs: 1565218443
    nsecs: 535579204
  frame_id: "/stereo/left"
pose: 
  position: 
    x: -0.0155241760384
    y: 0.0131610499182
    z: 0.440305476131
  orientation: 
    x: -0.0207221473096
    y: -0.998625439652
    z: -0.0458768918296
    w: -0.0145991330564
---
header: 
  seq: 4451
  stamp: 
    secs: 1565218444
    nsecs: 102356195
  frame_id: "/stereo/left"
pose: 
  position: 
    x: -0.0154335052799
    y: 0.0130947924491
    z: 0.439079794838
  orientation: 
    x: -0.02049735608
    y: -0.998472522702
    z: -0.049601179129
    w: -0.0131226076754
---
header: 
  seq: 4452
  stamp: 
    secs: 1565218444
    nsecs: 681595087
  frame_id: "/stereo/left"
pose: 
  position: 
    x: -0.0153720191378
    y: 0.0131136047308
    z: 0.43903939329
  orientation: 
    x: -0.0206033082593
    y: -0.99833227505
    z: -0.0521453366711
    w: -0.0137490416495
---
header: 
  seq: 4453
  stamp: 
    secs: 1565218445
    nsecs: 293177127
  frame_id: "/stereo/left"
pose: 
  position: 
    x: -0.0153418115632
    y: 0.0130090867934
    z: 0.437863304603
  orientation: 
    x: -0.0201141430471
    y: -0.998367692605
    z: -0.0522540372834
    w: -0.0112644218432
---
header: 
  seq: 4454
  stamp: 
    secs: 1565218446
    nsecs: 443508386
  frame_id: "/stereo/left"
pose: 
  position: 
    x: -0.0153008574055
    y: 0.0130274402342
    z: 0.438053000171
  orientation: 
    x: -0.0206323288335
    y: -0.998287781901
    z: -0.0532918177973
    w: -0.0124817334752
---
header: 
  seq: 4455
  stamp: 
    secs: 1565218447
    nsecs:  85205078
  frame_id: "/stereo/left"
pose: 
  position: 
    x: -0.0154446730373
    y: 0.0130912101151
    z: 0.438667076459
  orientation: 
    x: -0.0202362968949
    y: -0.998593146822
    z: -0.0471587384742
    w: -0.013351883499
---
header: 
  seq: 4456
  stamp: 
    secs: 1565218447
    nsecs: 652714014
  frame_id: "/stereo/left"
pose: 
  position: 
    x: -0.0153144422245
    y: 0.0130359291713
    z: 0.438243031172
  orientation: 
    x: -0.020706490733
    y: -0.998281882472
    z: -0.0532812246656
    w: -0.0128699443835
---
header: 
  seq: 4457
  stamp: 
    secs: 1565218448
    nsecs: 242960929
  frame_id: "/stereo/left"
pose: 
  position: 
    x: -0.0153781658307
    y: 0.0130769966498
    z: 0.438968448868
  orientation: 
    x: -0.0207085234561
    y: -0.998353560977
    z: -0.0515641773433
    w: -0.0142288424085
---
header: 
  seq: 4458
  stamp: 
    secs: 1565218449
    nsecs: 406343936
  frame_id: "/stereo/left"
pose: 
  position: 
    x: -0.0154358608877
    y: 0.0130620196394
    z: 0.438383229896
  orientation: 
    x: -0.0203551720376
    y: -0.998384949336
    z: -0.0515846661373
    w: -0.0123362121418
---
header: 
  seq: 4459
  stamp: 
    secs: 1565218449
    nsecs: 967356443
  frame_id: "/stereo/left"
pose: 
  position: 
    x: -0.0153973040575
    y: 0.0130508016768
    z: 0.438589938368
  orientation: 
    x: -0.0206242303649
    y: -0.998328882421
    z: -0.0522868445743
    w: -0.0134227244082
---
header: 
  seq: 4460
  stamp: 
    secs: 1565218450
    nsecs: 574819564
  frame_id: "/stereo/left"
pose: 
  position: 
    x: -0.0152775603151
    y: 0.0130559852717
    z: 0.438669820985
  orientation: 
    x: -0.0207118068779
    y: -0.998374986723
    z: -0.0513125878088
    w: -0.0136170949026
---
header: 
  seq: 4461
  stamp: 
    secs: 1565218451
    nsecs: 140751838
  frame_id: "/stereo/left"
pose: 
  position: 
    x: -0.0153665775755
    y: 0.0129764120929
    z: 0.437663324304
  orientation: 
    x: -0.0202207236585
    y: -0.998416466727
    z: -0.0513636107199
    w: -0.010837933276
---
header: 
  seq: 4462
  stamp: 
    secs: 1565218452
    nsecs: 366917610
  frame_id: "/stereo/left"
pose: 
  position: 
    x: -0.0153000463244
    y: 0.013086201339
    z: 0.438764767159
  orientation: 
    x: -0.0204699481066
    y: -0.998326282414
    z: -0.0522955677068
    w: -0.0138126270073
---
header: 
  seq: 4463
  stamp: 
    secs: 1565218452
    nsecs: 937777757
  frame_id: "/stereo/left"
pose: 
  position: 
    x: -0.0153008909149
    y: 0.0130624289783
    z: 0.438713069803
  orientation: 
    x: -0.0205978040978
    y: -0.998279250523
    z: -0.0531036423817
    w: -0.0139381350094
---
header: 
  seq: 4464
  stamp: 
    secs: 1565218453
    nsecs: 507587432
  frame_id: "/stereo/left"
pose: 
  position: 
    x: -0.0154800202866
    y: 0.0130831342787
    z: 0.439076738564
  orientation: 
    x: -0.0206130812187
    y: -0.998435370711
    z: -0.0502835393794
    w: -0.0131710692056
---
header: 
  seq: 4465
  stamp: 
    secs: 1565218454
    nsecs: 666032075
  frame_id: "/stereo/left"
pose: 
  position: 
    x: -0.0153300525546
    y: 0.0131004423111
    z: 0.438951307301
  orientation: 
    x: -0.020864321179
    y: -0.998336722695
    z: -0.0522527044838
    w: -0.0125747005451
---
header: 
  seq: 4466
  stamp: 
    secs: 1565218455
    nsecs: 232657432
  frame_id: "/stereo/left"
pose: 
  position: 
    x: -0.0153693868252
    y: 0.0130035533995
    z: 0.438007510862
  orientation: 
    x: -0.0199868218121
    y: -0.998389377602
    z: -0.0516008765597
    w: -0.0125110824314
---
header: 
  seq: 4467
  stamp: 
    secs: 1565218455
    nsecs: 825029611
  frame_id: "/stereo/left"
pose: 
  position: 
    x: -0.0153731793217
    y: 0.01307495604
    z: 0.438586257114
  orientation: 
    x: -0.0205459367258
    y: -0.99827247105
    z: -0.053391895007
    w: -0.0133881879016
---
header: 
  seq: 4468
  stamp: 
    secs: 1565218456
    nsecs: 394452810
  frame_id: "/stereo/left"
pose: 
  position: 
    x: -0.0153275049462
    y: 0.0130720213691
    z: 0.438842935444
  orientation: 
    x: -0.0206313331527
    y: -0.998323011988
    z: -0.0523899498297
    w: -0.0134463743919
---
header: 
  seq: 4469
  stamp: 
    secs: 1565218457
    nsecs: 602011442
  frame_id: "/stereo/left"
pose: 
  position: 
    x: -0.0154457342634
    y: 0.0130900464637
    z: 0.438994590067
  orientation: 
    x: -0.0205340414271
    y: -0.998495424355
    z: -0.0490278282376
    w: -0.0134726665176
---
header: 
  seq: 4470
  stamp: 
    secs: 1565218458
    nsecs: 171041727
  frame_id: "/stereo/left"
pose: 
  position: 
    x: -0.0154156704908
    y: 0.0130691561188
    z: 0.438266453569
  orientation: 
    x: -0.0201414259398
    y: -0.998503904352
    z: -0.0495100770264
    w: -0.01153378635
---
header: 
  seq: 4471
  stamp: 
    secs: 1565218458
    nsecs: 756709337
  frame_id: "/stereo/left"
pose: 
  position: 
    x: -0.0153968895229
    y: 0.0130660785292
    z: 0.438823900066
  orientation: 
    x: -0.0208246122974
    y: -0.998388130095
    z: -0.0509678559409
    w: -0.0137751540645
---
header: 
  seq: 4472
  stamp: 
    secs: 1565218459
    nsecs: 922663450
  frame_id: "/stereo/left"
pose: 
  position: 
    x: -0.0153089638423
    y: 0.0130793594789
    z: 0.438824128546
  orientation: 
    x: -0.0205244239884
    y: -0.998349477324
    z: -0.0517596065135
    w: -0.0140716836447
---
header: 
  seq: 4473
  stamp: 
    secs: 1565218460
    nsecs: 492939949
  frame_id: "/stereo/left"
pose: 
  position: 
    x: -0.0152865327253
    y: 0.0130152104068
    z: 0.438250598173
  orientation: 
    x: -0.0207242136379
    y: -0.998291729921
    z: -0.0529284199257
    w: -0.0135170745448
---
header: 
  seq: 4474
  stamp: 
    secs: 1565218461
    nsecs: 135404825
  frame_id: "/stereo/left"
pose: 
  position: 
    x: -0.0153517415921
    y: 0.0129753691885
    z: 0.437718103343
  orientation: 
    x: -0.0203416298839
    y: -0.998352468281
    z: -0.0523966895442
    w: -0.0115392415152
---
header: 
  seq: 4475
  stamp: 
    secs: 1565218461
    nsecs: 706204175
  frame_id: "/stereo/left"
pose: 
  position: 
    x: -0.0153332305067
    y: 0.0129560435097
    z: 0.437621125668
  orientation: 
    x: -0.0204260023214
    y: -0.998319121861
    z: -0.0530699627113
    w: -0.0111932307485
---
header: 
  seq: 4476
  stamp: 
    secs: 1565218462
    nsecs: 893207788
  frame_id: "/stereo/left"
pose: 
  position: 
    x: -0.0151322763431
    y: 0.0128787173974
    z: 0.437762795084
  orientation: 
    x: -0.0219918118926
    y: -0.998239392071
    z: -0.052747191752
    w: -0.0158811237128
---
header: 
  seq: 4477
  stamp: 
    secs: 1565218463
    nsecs: 460170030
  frame_id: "/stereo/left"
pose: 
  position: 
    x: -0.0151763964417
    y: 0.0129169290842
    z: 0.438200842662
  orientation: 
    x: -0.0219050344198
    y: -0.998128491211
    z: -0.0546518444982
    w: -0.0165184863845
---
header: 
  seq: 4478
  stamp: 
    secs: 1565218464
    nsecs:  37794113
  frame_id: "/stereo/left"
pose: 
  position: 
    x: -0.0155537844993
    y: 0.0131394307497
    z: 0.439771774625
  orientation: 
    x: -0.0200908975811
    y: -0.998763561841
    z: -0.0436548692893
    w: -0.012726184048
---
header: 
  seq: 4479
  stamp: 
    secs: 1565218464
    nsecs: 680819272
  frame_id: "/stereo/left"
pose: 
  position: 
    x: -0.0153503978712
    y: 0.0130970325728
    z: 0.439193898252
  orientation: 
    x: -0.0207136084656
    y: -0.998360753861
    z: -0.0517138097956
    w: -0.013131391814
---
header: 
  seq: 4480
  stamp: 
    secs: 1565218465
    nsecs: 822695732
  frame_id: "/stereo/left"
pose: 
  position: 
    x: -0.0153944987068
    y: 0.0130233266152
    z: 0.43826011783
  orientation: 
    x: -0.0201387215981
    y: -0.998378167903
    z: -0.0519140299039
    w: -0.0118490188215
---
header: 
  seq: 4481
  stamp: 
    secs: 1565218466
    nsecs: 441835641
  frame_id: "/stereo/left"
pose: 
  position: 
    x: -0.0153662589132
    y: 0.0130190294077
    z: 0.438065327341
  orientation: 
    x: -0.0203653021952
    y: -0.998324621878
    z: -0.0529714284817
    w: -0.0112796978354
---
header: 
  seq: 4482
  stamp: 
    secs: 1565218467
    nsecs:  20233869
  frame_id: "/stereo/left"
pose: 
  position: 
    x: -0.0155362017021
    y: 0.0130895119887
    z: 0.439201525586
  orientation: 
    x: -0.0198095414911
    y: -0.998846456636
    z: -0.043156166213
    w: -0.00713326352906
---
header: 
  seq: 4483
  stamp: 
    secs: 1565218467
    nsecs: 581427574
  frame_id: "/stereo/left"
pose: 
  position: 
    x: -0.015449919799
    y: 0.0130845162873
    z: 0.439134747279
  orientation: 
    x: -0.0201751155007
    y: -0.998567599156
    z: -0.0479688150079
    w: -0.0124381435956
---
header: 
  seq: 4484
  stamp: 
    secs: 1565218468
    nsecs: 796878814
  frame_id: "/stereo/left"
pose: 
  position: 
    x: -0.0153356788762
    y: 0.0130745033253
    z: 0.438997476566
  orientation: 
    x: -0.0208245193387
    y: -0.99834496129
    z: -0.0521036523486
    w: -0.0126050415411
---
