header: 
  seq: 5182
  stamp: 
    secs: 1565219059
    nsecs: 670921564
  frame_id: "/stereo/left"
pose: 
  position: 
    x: 0.294745088542
    y: -0.000139821333623
    z: 0.459682503847
  orientation: 
    x: -0.118744103762
    y: 0.983646049819
    z: -0.0868383408405
    w: 0.103920109011
---
header: 
  seq: 5183
  stamp: 
    secs: 1565219060
    nsecs: 266337156
  frame_id: "/stereo/left"
pose: 
  position: 
    x: 0.28399344053
    y: 0.00302892858736
    z: 0.431031815603
  orientation: 
    x: -0.0311258224561
    y: 0.998830383905
    z: -0.0180043440408
    w: -0.0323247731595
---
header: 
  seq: 5184
  stamp: 
    secs: 1565219060
    nsecs: 883004903
  frame_id: "/stereo/left"
pose: 
  position: 
    x: 0.283316169031
    y: 0.00291283774503
    z: 0.430574660234
  orientation: 
    x: -0.0313263570474
    y: 0.999005977198
    z: -0.0207629423398
    w: -0.0239711723337
---
header: 
  seq: 5185
  stamp: 
    secs: 1565219062
    nsecs:  66577672
  frame_id: "/stereo/left"
pose: 
  position: 
    x: 0.283311336944
    y: 0.00328828724705
    z: 0.430795793715
  orientation: 
    x: -0.0318836968514
    y: 0.999334205297
    z: -0.0169427577457
    w: -0.00524585163309
---
header: 
  seq: 5186
  stamp: 
    secs: 1565219062
    nsecs: 634172916
  frame_id: "/stereo/left"
pose: 
  position: 
    x: 0.0447821350506
    y: 0.0476908855847
    z: 0.0506958315643
  orientation: 
    x: 0.69443411306
    y: -0.567086874658
    z: 0.425554336243
    w: -0.122789438117
---
header: 
  seq: 5187
  stamp: 
    secs: 1565219063
    nsecs: 243081092
  frame_id: "/stereo/left"
pose: 
  position: 
    x: 0.284006231466
    y: 0.00303552174203
    z: 0.431156618549
  orientation: 
    x: -0.0310819876292
    y: 0.999060786243
    z: -0.0198441680541
    w: -0.0227522401201
---
header: 
  seq: 5188
  stamp: 
    secs: 1565219063
    nsecs: 814595937
  frame_id: "/stereo/left"
pose: 
  position: 
    x: 0.283954216739
    y: 0.00307546091231
    z: 0.431233121348
  orientation: 
    x: -0.0311530934869
    y: 0.998971881387
    z: -0.0204480245937
    w: -0.0258174989921
---
header: 
  seq: 5189
  stamp: 
    secs: 1565219065
    nsecs: 597593069
  frame_id: "/stereo/left"
pose: 
  position: 
    x: 0.294541494957
    y: -0.000187237887817
    z: 0.459432987236
  orientation: 
    x: 0.120456416384
    y: -0.983348403463
    z: 0.0875992079455
    w: -0.104127556035
---
header: 
  seq: 5190
  stamp: 
    secs: 1565219066
    nsecs: 169537782
  frame_id: "/stereo/left"
pose: 
  position: 
    x: 0.283475469482
    y: 0.00280216525594
    z: 0.430760465728
  orientation: 
    x: -0.0312721215758
    y: 0.999044249888
    z: -0.0196741597029
    w: -0.0233574103513
---
header: 
  seq: 5191
  stamp: 
    secs: 1565219067
    nsecs: 339271545
  frame_id: "/stereo/left"
pose: 
  position: 
    x: 0.280155355479
    y: 0.00495684621383
    z: 0.427124527314
  orientation: 
    x: -0.0366353472011
    y: 0.998805415412
    z: -0.0137795673975
    w: 0.0292526409448
---
header: 
  seq: 5192
  stamp: 
    secs: 1565219067
    nsecs: 909344673
  frame_id: "/stereo/left"
pose: 
  position: 
    x: 0.284058966945
    y: 0.002851672054
    z: 0.431008804267
  orientation: 
    x: -0.0320202249628
    y: 0.998674717563
    z: -0.0195636908922
    w: -0.0352246461061
---
header: 
  seq: 5193
  stamp: 
    secs: 1565219068
    nsecs: 503613948
  frame_id: "/stereo/left"
pose: 
  position: 
    x: 0.283925523892
    y: 0.00331275129372
    z: 0.431560986713
  orientation: 
    x: -0.0307480346076
    y: 0.999388647556
    z: -0.0145772633927
    w: -0.00802451848638
---
header: 
  seq: 5194
  stamp: 
    secs: 1565219069
    nsecs:  63934087
  frame_id: "/stereo/left"
pose: 
  position: 
    x: 0.280324954424
    y: 0.0048256622724
    z: 0.426957498702
  orientation: 
    x: -0.0371797861803
    y: 0.998888621653
    z: -0.0167989509475
    w: 0.0236004296133
---
header: 
  seq: 5195
  stamp: 
    secs: 1565219070
    nsecs: 287173748
  frame_id: "/stereo/left"
pose: 
  position: 
    x: 0.283626346292
    y: 0.00285393876324
    z: 0.430685241395
  orientation: 
    x: -0.0316859519232
    y: 0.998789477703
    z: -0.0188686948147
    w: -0.0325507609341
---
header: 
  seq: 5196
  stamp: 
    secs: 1565219071
    nsecs: 428247928
  frame_id: "/stereo/left"
pose: 
  position: 
    x: 0.283322837402
    y: 0.0031613777351
    z: 0.430872359976
  orientation: 
    x: -0.0315118310238
    y: 0.999360602054
    z: -0.0160132347169
    w: -0.00538218178244
---
header: 
  seq: 5197
  stamp: 
    secs: 1565219072
    nsecs:  40486097
  frame_id: "/stereo/left"
pose: 
  position: 
    x: 0.294750041468
    y: -0.000316768361527
    z: 0.459598490243
  orientation: 
    x: 0.118508846496
    y: -0.983833279326
    z: 0.0873398711858
    w: -0.101977834332
---
header: 
  seq: 5198
  stamp: 
    secs: 1565219073
    nsecs: 185955286
  frame_id: "/stereo/left"
pose: 
  position: 
    x: 0.284074688618
    y: 0.00300087439904
    z: 0.431444408415
  orientation: 
    x: -0.0307786455344
    y: 0.998945792373
    z: -0.0206742118337
    w: -0.0270657688617
---
header: 
  seq: 5199
  stamp: 
    secs: 1565219073
    nsecs: 829841852
  frame_id: "/stereo/left"
pose: 
  position: 
    x: 0.280649157618
    y: 0.00467481907205
    z: 0.427907646886
  orientation: 
    x: -0.0370526675046
    y: 0.998857845055
    z: -0.0153223557177
    w: 0.0259871240708
---
header: 
  seq: 5200
  stamp: 
    secs: 1565219074
    nsecs: 394885540
  frame_id: "/stereo/left"
pose: 
  position: 
    x: 0.283454675131
    y: 0.00344023005175
    z: 0.430879814436
  orientation: 
    x: -0.0317036641954
    y: 0.999350666807
    z: -0.0166762154791
    w: -0.00387637283692
---
header: 
  seq: 5201
  stamp: 
    secs: 1565219074
    nsecs: 983099222
  frame_id: "/stereo/left"
pose: 
  position: 
    x: 0.280318965216
    y: 0.00483322225789
    z: 0.427302835235
  orientation: 
    x: -0.0366521473478
    y: 0.99882396518
    z: -0.0141407718559
    w: 0.0284138214436
---
header: 
  seq: 5202
  stamp: 
    secs: 1565219076
    nsecs: 727401018
  frame_id: "/stereo/left"
pose: 
  position: 
    x: 0.283107868792
    y: 0.00331565392473
    z: 0.430823652044
  orientation: 
    x: -0.0325384037548
    y: 0.999335793266
    z: -0.0163643472325
    w: -0.00119696181832
---
header: 
  seq: 5203
  stamp: 
    secs: 1565219078
    nsecs: 462949752
  frame_id: "/stereo/left"
pose: 
  position: 
    x: 0.284305832319
    y: 0.00310136841186
    z: 0.431290128952
  orientation: 
    x: -0.03140039056
    y: 0.99877689002
    z: -0.0179749508875
    w: -0.0336992666731
---
header: 
  seq: 5204
  stamp: 
    secs: 1565219079
    nsecs:  98432064
  frame_id: "/stereo/left"
pose: 
  position: 
    x: 0.283279933853
    y: 0.00324614053937
    z: 0.430711499222
  orientation: 
    x: -0.0325753967825
    y: 0.999309894798
    z: -0.0171989308967
    w: -0.00477225925887
---
header: 
  seq: 5205
  stamp: 
    secs: 1565219079
    nsecs: 661271333
  frame_id: "/stereo/left"
pose: 
  position: 
    x: 0.284056204295
    y: 0.00339100159599
    z: 0.43171219672
  orientation: 
    x: -0.0305263865092
    y: 0.999361551455
    z: -0.015867813698
    w: -0.00963543923917
---
header: 
  seq: 5206
  stamp: 
    secs: 1565219080
    nsecs: 245746374
  frame_id: "/stereo/left"
pose: 
  position: 
    x: 0.283761262934
    y: 0.00339428334264
    z: 0.431582556323
  orientation: 
    x: -0.030942915836
    y: 0.999421381645
    z: -0.0136794152398
    w: -0.0035087702936
---
header: 
  seq: 5207
  stamp: 
    secs: 1565219081
    nsecs: 418001890
  frame_id: "/stereo/left"
pose: 
  position: 
    x: 0.253123900978
    y: 0.012352064739
    z: 0.391179865899
  orientation: 
    x: -0.0402840882916
    y: 0.993078727045
    z: 0.0569412103089
    w: 0.0944962046284
---
header: 
  seq: 5208
  stamp: 
    secs: 1565219081
    nsecs: 991695404
  frame_id: "/stereo/left"
pose: 
  position: 
    x: 0.283477041687
    y: 0.00294262977554
    z: 0.430760035133
  orientation: 
    x: -0.0315304448602
    y: 0.999099134269
    z: -0.0190512014529
    w: -0.0210666246154
---
header: 
  seq: 5209
  stamp: 
    secs: 1565219082
    nsecs: 576485157
  frame_id: "/stereo/left"
pose: 
  position: 
    x: 0.279987504633
    y: 0.00492459215081
    z: 0.42694385278
  orientation: 
    x: -0.0369363589882
    y: 0.998711095434
    z: -0.0136942223464
    w: 0.0320050233045
---
header: 
  seq: 5210
  stamp: 
    secs: 1565219083
    nsecs: 712365388
  frame_id: "/stereo/left"
pose: 
  position: 
    x: 0.284260524266
    y: 0.00296199629739
    z: 0.431363004642
  orientation: 
    x: -0.0310621825776
    y: 0.99881790748
    z: -0.0174127391426
    w: -0.0330866291321
---
header: 
  seq: 5211
  stamp: 
    secs: 1565219084
    nsecs: 355113267
  frame_id: "/stereo/left"
pose: 
  position: 
    x: 0.280118054823
    y: 0.00487838692838
    z: 0.427181981943
  orientation: 
    x: -0.0368829847493
    y: 0.998708023675
    z: -0.013659996632
    w: 0.0321765966842
---
header: 
  seq: 5212
  stamp: 
    secs: 1565219084
    nsecs: 924420118
  frame_id: "/stereo/left"
pose: 
  position: 
    x: 0.283511189298
    y: 0.00342229590657
    z: 0.431272306924
  orientation: 
    x: -0.0316251284592
    y: 0.999387947679
    z: -0.0148725072056
    w: -0.00154590194831
---
header: 
  seq: 5213
  stamp: 
    secs: 1565219085
    nsecs: 500278472
  frame_id: "/stereo/left"
pose: 
  position: 
    x: 0.294071715204
    y: -0.00018761968511
    z: 0.459017077162
  orientation: 
    x: -0.121218032551
    y: 0.983346327188
    z: -0.0870527015296
    w: 0.103720858781
---
header: 
  seq: 5214
  stamp: 
    secs: 1565219086
    nsecs: 686565637
  frame_id: "/stereo/left"
pose: 
  position: 
    x: 0.282906689774
    y: 0.00286858004907
    z: 0.430497052025
  orientation: 
    x: -0.0328871248438
    y: 0.999208148741
    z: -0.0186630329805
    w: -0.0123775485504
---
header: 
  seq: 5215
  stamp: 
    secs: 1565219087
    nsecs: 246439218
  frame_id: "/stereo/left"
pose: 
  position: 
    x: 0.279075255527
    y: 0.00506936535698
    z: 0.42577896023
  orientation: 
    x: -0.0382660463877
    y: 0.998416211662
    z: -0.0143163826904
    w: 0.0386758215181
---
header: 
  seq: 5216
  stamp: 
    secs: 1565219088
    nsecs: 468321323
  frame_id: "/stereo/left"
pose: 
  position: 
    x: 0.280791527255
    y: 0.00481670416479
    z: 0.428121808808
  orientation: 
    x: -0.0344658945836
    y: 0.998877556821
    z: -0.0100448419838
    w: 0.0309003194209
---
