header: 
  seq: 3958
  stamp: 
    secs: 1565218071
    nsecs: 359347820
  frame_id: "/stereo/left"
pose: 
  position: 
    x: 0.0881792614182
    y: 0.00258794233937
    z: 0.490124029054
  orientation: 
    x: 0.00959045277144
    y: 0.9996535407
    z: 0.00623802406101
    w: 0.0237046163779
---
header: 
  seq: 3959
  stamp: 
    secs: 1565218072
    nsecs: 593960523
  frame_id: "/stereo/left"
pose: 
  position: 
    x: 0.0882759013033
    y: 0.00267382360617
    z: 0.490626019616
  orientation: 
    x: 0.0105304800963
    y: 0.999643965172
    z: 0.00889934204973
    w: 0.0228441151195
---
header: 
  seq: 3960
  stamp: 
    secs: 1565218073
    nsecs: 197552204
  frame_id: "/stereo/left"
pose: 
  position: 
    x: 0.088296922598
    y: 0.00261649150033
    z: 0.490452320039
  orientation: 
    x: 0.0111957608157
    y: 0.99960873246
    z: 0.0107163341202
    w: 0.0232851264313
---
header: 
  seq: 3961
  stamp: 
    secs: 1565218073
    nsecs: 809295415
  frame_id: "/stereo/left"
pose: 
  position: 
    x: 0.0881029967322
    y: 0.00253908162363
    z: 0.490117543959
  orientation: 
    x: 0.00915597253246
    y: 0.999617938892
    z: 0.00275784799692
    w: 0.025933350855
---
header: 
  seq: 3962
  stamp: 
    secs: 1565218074
    nsecs: 390190601
  frame_id: "/stereo/left"
pose: 
  position: 
    x: 0.0879903972112
    y: 0.0027131284375
    z: 0.490295456155
  orientation: 
    x: 0.0088878560252
    y: 0.999567713363
    z: 0.00396993400983
    w: 0.0277422429014
---
header: 
  seq: 3963
  stamp: 
    secs: 1565218075
    nsecs: 597894191
  frame_id: "/stereo/left"
pose: 
  position: 
    x: 0.0880673976369
    y: 0.00264047002596
    z: 0.490624986912
  orientation: 
    x: 0.00930485813884
    y: 0.99960372151
    z: 0.00574014670174
    w: 0.0259397431422
---
header: 
  seq: 3964
  stamp: 
    secs: 1565218076
    nsecs: 156502246
  frame_id: "/stereo/left"
pose: 
  position: 
    x: 0.0878821179595
    y: 0.00264140614222
    z: 0.490618289002
  orientation: 
    x: 0.00821705307335
    y: 0.999586369228
    z: 0.000204934857398
    w: 0.0275595445265
---
header: 
  seq: 3965
  stamp: 
    secs: 1565218076
    nsecs: 743946552
  frame_id: "/stereo/left"
pose: 
  position: 
    x: 0.0881177578816
    y: 0.00263445444343
    z: 0.49060135693
  orientation: 
    x: 0.00944626799443
    y: 0.999627611642
    z: 0.00658350527074
    w: 0.0247399175916
---
header: 
  seq: 3966
  stamp: 
    secs: 1565218077
    nsecs: 881228446
  frame_id: "/stereo/left"
pose: 
  position: 
    x: 0.0882122132807
    y: 0.0025862987499
    z: 0.490794028502
  orientation: 
    x: 0.0096573046593
    y: 0.999671367937
    z: 0.00759479120211
    w: 0.0224991497511
---
header: 
  seq: 3967
  stamp: 
    secs: 1565218078
    nsecs: 453150749
  frame_id: "/stereo/left"
pose: 
  position: 
    x: 0.088227805406
    y: 0.00262433511558
    z: 0.490511193406
  orientation: 
    x: 0.00996845780686
    y: 0.999682607801
    z: 0.00903061221777
    w: 0.0213016795379
---
header: 
  seq: 3968
  stamp: 
    secs: 1565218079
    nsecs:  76871395
  frame_id: "/stereo/left"
pose: 
  position: 
    x: 0.0878941164132
    y: 0.00262083058276
    z: 0.490318999773
  orientation: 
    x: 0.0084443980333
    y: 0.999528907686
    z: 0.000251434129214
    w: 0.0295057896328
---
header: 
  seq: 3969
  stamp: 
    secs: 1565218079
    nsecs: 664995670
  frame_id: "/stereo/left"
pose: 
  position: 
    x: 0.0881473961078
    y: 0.00255749385812
    z: 0.491082376727
  orientation: 
    x: 0.00894287736915
    y: 0.999687574139
    z: 0.00512148896036
    w: 0.0227716799239
---
header: 
  seq: 3970
  stamp: 
    secs: 1565218080
    nsecs: 823891401
  frame_id: "/stereo/left"
pose: 
  position: 
    x: 0.0879899848681
    y: 0.0025181734089
    z: 0.490445340117
  orientation: 
    x: 0.00849322304111
    y: 0.999620336526
    z: 0.00214216789037
    w: 0.0261239178459
---
header: 
  seq: 3971
  stamp: 
    secs: 1565218081
    nsecs: 412376642
  frame_id: "/stereo/left"
pose: 
  position: 
    x: 0.0880088247875
    y: 0.00266977905843
    z: 0.490149920518
  orientation: 
    x: 0.00947363257578
    y: 0.999572189163
    z: 0.00300447610916
    w: 0.0275074910035
---
header: 
  seq: 3972
  stamp: 
    secs: 1565218081
    nsecs: 975310802
  frame_id: "/stereo/left"
pose: 
  position: 
    x: 0.0881878389236
    y: 0.00260378130752
    z: 0.490487396037
  orientation: 
    x: 0.00992620482747
    y: 0.999632317003
    z: 0.00846285946218
    w: 0.0237714381197
---
header: 
  seq: 3973
  stamp: 
    secs: 1565218082
    nsecs: 604015588
  frame_id: "/stereo/left"
pose: 
  position: 
    x: 0.0880162465782
    y: 0.00258263968006
    z: 0.490406073512
  orientation: 
    x: 0.0085945409138
    y: 0.999624326935
    z: 0.00227127515571
    w: 0.0259264377736
---
header: 
  seq: 3974
  stamp: 
    secs: 1565218083
    nsecs: 752877235
  frame_id: "/stereo/left"
pose: 
  position: 
    x: 0.0881594356414
    y: 0.0025532975881
    z: 0.489981462732
  orientation: 
    x: 0.00986581926924
    y: 0.999651930415
    z: 0.00697333343658
    w: 0.0234532780068
---
header: 
  seq: 3975
  stamp: 
    secs: 1565218084
    nsecs: 356048822
  frame_id: "/stereo/left"
pose: 
  position: 
    x: 0.0881317104337
    y: 0.00253644612531
    z: 0.490202467968
  orientation: 
    x: 0.00879843549134
    y: 0.999650551298
    z: 0.00305465098249
    w: 0.0247392791007
---
header: 
  seq: 3976
  stamp: 
    secs: 1565218084
    nsecs: 917755842
  frame_id: "/stereo/left"
pose: 
  position: 
    x: 0.0880172585721
    y: 0.00265663399785
    z: 0.490271971631
  orientation: 
    x: 0.00892458903335
    y: 0.999600222133
    z: 0.00427693069908
    w: 0.026485004945
---
header: 
  seq: 3977
  stamp: 
    secs: 1565218085
    nsecs: 490328073
  frame_id: "/stereo/left"
pose: 
  position: 
    x: 0.0879121881003
    y: 0.00240488571868
    z: 0.489440201385
  orientation: 
    x: 0.00939944766182
    y: 0.999369306542
    z: -0.00168458129442
    w: 0.0342023641282
---
header: 
  seq: 3978
  stamp: 
    secs: 1565218086
    nsecs: 708007574
  frame_id: "/stereo/left"
pose: 
  position: 
    x: 0.0881407654047
    y: 0.00264582899578
    z: 0.491288786115
  orientation: 
    x: 0.0094084394433
    y: 0.999651720963
    z: 0.00666994946286
    w: 0.0237366766264
---
header: 
  seq: 3979
  stamp: 
    secs: 1565218087
    nsecs: 284163475
  frame_id: "/stereo/left"
pose: 
  position: 
    x: 0.0879791797219
    y: 0.00258143345204
    z: 0.490662999704
  orientation: 
    x: 0.00897224781734
    y: 0.999622143278
    z: 0.00304769525731
    w: 0.0258027322281
---
header: 
  seq: 3980
  stamp: 
    secs: 1565218087
    nsecs: 884491920
  frame_id: "/stereo/left"
pose: 
  position: 
    x: 0.0879063605203
    y: 0.00262451594713
    z: 0.49040760098
  orientation: 
    x: 0.00878908862424
    y: 0.999511020503
    z: 0.000345680787952
    w: 0.0300058714007
---
header: 
  seq: 3981
  stamp: 
    secs: 1565218089
    nsecs:  15396356
  frame_id: "/stereo/left"
pose: 
  position: 
    x: 0.0881178184168
    y: 0.00253792188427
    z: 0.490063814392
  orientation: 
    x: 0.00984765059749
    y: 0.999629403102
    z: 0.00650253916326
    w: 0.0245315555308
---
header: 
  seq: 3982
  stamp: 
    secs: 1565218089
    nsecs: 615947723
  frame_id: "/stereo/left"
pose: 
  position: 
    x: 0.088049645483
    y: 0.00260616209664
    z: 0.490002214466
  orientation: 
    x: 0.00933472831654
    y: 0.999609290446
    z: 0.00396438767023
    w: 0.0260463612029
---
header: 
  seq: 3983
  stamp: 
    secs: 1565218090
    nsecs: 180512666
  frame_id: "/stereo/left"
pose: 
  position: 
    x: 0.0878538693687
    y: 0.0025998315909
    z: 0.490326160315
  orientation: 
    x: 0.00830612076051
    y: 0.999539018735
    z: -0.000315437092397
    w: 0.0292003233523
---
header: 
  seq: 3984
  stamp: 
    secs: 1565218091
    nsecs: 334774971
  frame_id: "/stereo/left"
pose: 
  position: 
    x: 0.0880401440234
    y: 0.00266099223229
    z: 0.490459117528
  orientation: 
    x: 0.00916180268426
    y: 0.999612639439
    z: 0.00405339044569
    w: 0.0259654091416
---
header: 
  seq: 3985
  stamp: 
    secs: 1565218091
    nsecs: 905494213
  frame_id: "/stereo/left"
pose: 
  position: 
    x: 0.0879617257987
    y: 0.00269140452645
    z: 0.49022905602
  orientation: 
    x: 0.00909132882718
    y: 0.99962885202
    z: 0.00284047955919
    w: 0.0255232761332
---
header: 
  seq: 3986
  stamp: 
    secs: 1565218092
    nsecs: 470839500
  frame_id: "/stereo/left"
pose: 
  position: 
    x: 0.0879370030662
    y: 0.00263465671698
    z: 0.490575199411
  orientation: 
    x: 0.00869137287016
    y: 0.999519900557
    z: 0.00103918405308
    w: 0.0297211797152
---
header: 
  seq: 3987
  stamp: 
    secs: 1565218093
    nsecs: 630122900
  frame_id: "/stereo/left"
pose: 
  position: 
    x: 0.0881415883177
    y: 0.00260623287796
    z: 0.490447118284
  orientation: 
    x: 0.009199611909
    y: 0.999666900577
    z: 0.00533610162659
    w: 0.0235155491196
---
header: 
  seq: 3988
  stamp: 
    secs: 1565218094
    nsecs: 193616867
  frame_id: "/stereo/left"
pose: 
  position: 
    x: 0.0879585087535
    y: 0.0025733331754
    z: 0.490631016421
  orientation: 
    x: 0.00841712485762
    y: 0.999586016006
    z: 0.000429624791932
    w: 0.0275093445259
---
header: 
  seq: 3989
  stamp: 
    secs: 1565218094
    nsecs: 798096656
  frame_id: "/stereo/left"
pose: 
  position: 
    x: 0.0879443162892
    y: 0.00259742411952
    z: 0.490612254165
  orientation: 
    x: 0.00870116390688
    y: 0.99955381465
    z: 6.25258053481e-05
    w: 0.0285737196744
---
header: 
  seq: 3990
  stamp: 
    secs: 1565218095
    nsecs: 362356185
  frame_id: "/stereo/left"
pose: 
  position: 
    x: 0.0880248309582
    y: 0.00265909293411
    z: 0.490639038214
  orientation: 
    x: 0.00924665421002
    y: 0.999599553395
    z: 0.00524665826584
    w: 0.0262241266033
---
header: 
  seq: 3991
  stamp: 
    secs: 1565218096
    nsecs: 532741069
  frame_id: "/stereo/left"
pose: 
  position: 
    x: 0.0881901655889
    y: 0.00258967543044
    z: 0.490368221642
  orientation: 
    x: 0.00988179471408
    y: 0.999641031287
    z: 0.00894287140715
    w: 0.0232418534597
---
header: 
  seq: 3992
  stamp: 
    secs: 1565218097
    nsecs: 104344844
  frame_id: "/stereo/left"
pose: 
  position: 
    x: 0.0881985663015
    y: 0.00261594940831
    z: 0.490018862344
  orientation: 
    x: 0.0104840506498
    y: 0.99961163878
    z: 0.0091429593176
    w: 0.0241466890735
---
header: 
  seq: 3993
  stamp: 
    secs: 1565218097
    nsecs: 680748224
  frame_id: "/stereo/left"
pose: 
  position: 
    x: 0.0879605823597
    y: 0.00252471543399
    z: 0.489933464247
  orientation: 
    x: 0.0085861347662
    y: 0.999471783545
    z: 0.000110866543837
    w: 0.0313435782343
---
header: 
  seq: 3994
  stamp: 
    secs: 1565218098
    nsecs: 315952539
  frame_id: "/stereo/left"
pose: 
  position: 
    x: 0.08790674505
    y: 0.00254817101495
    z: 0.489873590092
  orientation: 
    x: 0.00849714700137
    y: 0.999508062015
    z: 0.00101212044397
    w: 0.0301729692343
---
header: 
  seq: 3995
  stamp: 
    secs: 1565218099
    nsecs: 456828355
  frame_id: "/stereo/left"
pose: 
  position: 
    x: 0.0881222748416
    y: 0.00265650539636
    z: 0.490515825467
  orientation: 
    x: 0.00884956533772
    y: 0.999631101812
    z: 0.00609657208705
    w: 0.0249434819618
---
header: 
  seq: 3996
  stamp: 
    secs: 1565218100
    nsecs:  61839103
  frame_id: "/stereo/left"
pose: 
  position: 
    x: 0.0879483434221
    y: 0.00263448550169
    z: 0.489948058871
  orientation: 
    x: 0.00789426747271
    y: 0.999604855667
    z: 0.00147720476257
    w: 0.0269375376332
---
