header: 
  seq: 4728
  stamp: 
    secs: 1565218650
    nsecs:  24622917
  frame_id: "/stereo/left"
pose: 
  position: 
    x: 0.136411394495
    y: 0.00830249037925
    z: 0.434746414187
  orientation: 
    x: 0.00487762897409
    y: 0.999769280139
    z: 0.000412888271926
    w: 0.0209147017473
---
header: 
  seq: 4729
  stamp: 
    secs: 1565218650
    nsecs: 636829376
  frame_id: "/stereo/left"
pose: 
  position: 
    x: 0.136752503417
    y: 0.00744766481804
    z: 0.434799950952
  orientation: 
    x: 0.00355650379625
    y: 0.99993944129
    z: -0.00948166477496
    w: -0.00430848773282
---
header: 
  seq: 4730
  stamp: 
    secs: 1565218651
    nsecs: 202345609
  frame_id: "/stereo/left"
pose: 
  position: 
    x: 0.136560217095
    y: 0.00764276702667
    z: 0.434700984393
  orientation: 
    x: 0.00255623977558
    y: 0.999949093563
    z: -0.00858594017368
    w: 0.00464301115871
---
header: 
  seq: 4731
  stamp: 
    secs: 1565218652
    nsecs: 417307138
  frame_id: "/stereo/left"
pose: 
  position: 
    x: 0.136378439827
    y: 0.00830195718479
    z: 0.434444548927
  orientation: 
    x: 0.00493736592333
    y: 0.999773480078
    z: 0.00191903680354
    w: 0.0206137878141
---
header: 
  seq: 4732
  stamp: 
    secs: 1565218652
    nsecs: 984026670
  frame_id: "/stereo/left"
pose: 
  position: 
    x: 0.136383573649
    y: 0.00828248207007
    z: 0.434656185745
  orientation: 
    x: 0.00505948669978
    y: 0.999773058112
    z: 0.00110909010389
    w: 0.0206640699402
---
header: 
  seq: 4733
  stamp: 
    secs: 1565218653
    nsecs: 557179927
  frame_id: "/stereo/left"
pose: 
  position: 
    x: 0.136660389102
    y: 0.00735251362609
    z: 0.43473691083
  orientation: 
    x: 0.00237884436339
    y: 0.999907901848
    z: -0.0124397266273
    w: -0.00487669182088
---
header: 
  seq: 4734
  stamp: 
    secs: 1565218654
    nsecs: 198987245
  frame_id: "/stereo/left"
pose: 
  position: 
    x: 0.136585525079
    y: 0.00746202586424
    z: 0.434680393446
  orientation: 
    x: 0.00271702932267
    y: 0.999950348029
    z: -0.00957050970089
    w: -0.000569711838584
---
header: 
  seq: 4735
  stamp: 
    secs: 1565218655
    nsecs: 349551439
  frame_id: "/stereo/left"
pose: 
  position: 
    x: 0.136555033262
    y: 0.00755699206727
    z: 0.43482060644
  orientation: 
    x: 0.00248863480298
    y: 0.999941501317
    z: -0.0105225423109
    w: 0.000277026273273
---
header: 
  seq: 4736
  stamp: 
    secs: 1565218655
    nsecs: 971653938
  frame_id: "/stereo/left"
pose: 
  position: 
    x: 0.136418154094
    y: 0.00782254613988
    z: 0.434875828067
  orientation: 
    x: 0.00334719169679
    y: 0.999914290174
    z: -0.00569083612716
    w: 0.0113058832969
---
header: 
  seq: 4737
  stamp: 
    secs: 1565218656
    nsecs: 536804676
  frame_id: "/stereo/left"
pose: 
  position: 
    x: 0.136461081102
    y: 0.00775397441488
    z: 0.434905389775
  orientation: 
    x: 0.00321387112236
    y: 0.999925512965
    z: -0.00623816502543
    w: 0.00998623312173
---
header: 
  seq: 4738
  stamp: 
    secs: 1565218657
    nsecs: 111129760
  frame_id: "/stereo/left"
pose: 
  position: 
    x: 0.136856938869
    y: 0.00737736070469
    z: 0.434876135152
  orientation: 
    x: 0.00371898593998
    y: 0.999924808518
    z: -0.00987633150362
    w: -0.00624536060687
---
header: 
  seq: 4739
  stamp: 
    secs: 1565218658
    nsecs: 334909915
  frame_id: "/stereo/left"
pose: 
  position: 
    x: 0.136820097744
    y: 0.00737408330997
    z: 0.435105884072
  orientation: 
    x: 0.00262586779267
    y: 0.999878299969
    z: -0.0133498725975
    w: -0.00763354250765
---
header: 
  seq: 4740
  stamp: 
    secs: 1565218658
    nsecs: 915625572
  frame_id: "/stereo/left"
pose: 
  position: 
    x: 0.136462089636
    y: 0.00776161284972
    z: 0.435155734167
  orientation: 
    x: 0.00204270857617
    y: 0.999931611647
    z: -0.00993946385266
    w: 0.00581432964421
---
header: 
  seq: 4741
  stamp: 
    secs: 1565218659
    nsecs: 519559383
  frame_id: "/stereo/left"
pose: 
  position: 
    x: 0.136541531489
    y: 0.00751210469439
    z: 0.434898341945
  orientation: 
    x: 0.00173141203402
    y: 0.999890035776
    z: -0.0146664644891
    w: -0.00134662059556
---
header: 
  seq: 4742
  stamp: 
    secs: 1565218660
    nsecs:  86639881
  frame_id: "/stereo/left"
pose: 
  position: 
    x: 0.136526544737
    y: 0.00755228115239
    z: 0.434950343816
  orientation: 
    x: 0.00183986500172
    y: 0.999909700259
    z: -0.0133111696522
    w: -0.000137794780277
---
header: 
  seq: 4743
  stamp: 
    secs: 1565218661
    nsecs: 308521986
  frame_id: "/stereo/left"
pose: 
  position: 
    x: 0.136154501352
    y: 0.00853766285546
    z: 0.432758628798
  orientation: 
    x: 0.00742936738405
    y: 0.999523376382
    z: 0.0068794718675
    w: 0.0291632891243
---
header: 
  seq: 4744
  stamp: 
    secs: 1565218661
    nsecs: 900341987
  frame_id: "/stereo/left"
pose: 
  position: 
    x: 0.136467677173
    y: 0.00773477322195
    z: 0.434931451137
  orientation: 
    x: 0.00269935702937
    y: 0.999917502826
    z: -0.00779946070996
    w: 0.00984222671673
---
header: 
  seq: 4745
  stamp: 
    secs: 1565218662
    nsecs: 464942216
  frame_id: "/stereo/left"
pose: 
  position: 
    x: 0.136083444918
    y: 0.00870407033757
    z: 0.432592820698
  orientation: 
    x: 0.00683762292111
    y: 0.999515340452
    z: 0.00542627792389
    w: 0.0298812085123
---
header: 
  seq: 4746
  stamp: 
    secs: 1565218663
    nsecs:  66139936
  frame_id: "/stereo/left"
pose: 
  position: 
    x: 0.136666176807
    y: 0.00748047963353
    z: 0.434797121893
  orientation: 
    x: 0.0031995505564
    y: 0.999956232653
    z: -0.00879129088803
    w: 9.41244035398e-05
---
header: 
  seq: 4747
  stamp: 
    secs: 1565218664
    nsecs: 212369680
  frame_id: "/stereo/left"
pose: 
  position: 
    x: 0.136391585118
    y: 0.00774312098354
    z: 0.434489798119
  orientation: 
    x: 0.0035145178308
    y: 0.999942645535
    z: -0.00469294970616
    w: 0.00896270205437
---
header: 
  seq: 4748
  stamp: 
    secs: 1565218664
    nsecs: 844651937
  frame_id: "/stereo/left"
pose: 
  position: 
    x: 0.136070905424
    y: 0.0085141876052
    z: 0.432595779432
  orientation: 
    x: 0.00742325843901
    y: 0.999449805283
    z: 0.00746210073685
    w: 0.0314531239402
---
header: 
  seq: 4749
  stamp: 
    secs: 1565218665
    nsecs: 419643163
  frame_id: "/stereo/left"
pose: 
  position: 
    x: 0.136491314222
    y: 0.00827851720626
    z: 0.435265426722
  orientation: 
    x: 0.0041772601354
    y: 0.999890561801
    z: -0.00240183999223
    w: 0.0139873544026
---
header: 
  seq: 4750
  stamp: 
    secs: 1565218665
    nsecs: 991237640
  frame_id: "/stereo/left"
pose: 
  position: 
    x: 0.136540071866
    y: 0.00757166940521
    z: 0.434832776869
  orientation: 
    x: 0.00194620111301
    y: 0.999919219441
    z: -0.0125447842836
    w: -0.000628714137208
---
header: 
  seq: 4751
  stamp: 
    secs: 1565218667
    nsecs: 185332059
  frame_id: "/stereo/left"
pose: 
  position: 
    x: 0.136459459631
    y: 0.00769786897956
    z: 0.434578097249
  orientation: 
    x: 0.00347121177428
    y: 0.999929212433
    z: -0.00507588365641
    w: 0.0101860795603
---
header: 
  seq: 4752
  stamp: 
    secs: 1565218667
    nsecs: 750015020
  frame_id: "/stereo/left"
pose: 
  position: 
    x: 0.136338764825
    y: 0.00817418512823
    z: 0.434352174106
  orientation: 
    x: 0.00497296367503
    y: 0.999787229253
    z: 0.00128034585053
    w: 0.0199781522785
---
header: 
  seq: 4753
  stamp: 
    secs: 1565218668
    nsecs: 390233039
  frame_id: "/stereo/left"
pose: 
  position: 
    x: 0.136810051184
    y: 0.00733804865759
    z: 0.434820623816
  orientation: 
    x: 0.00363187350537
    y: 0.999911535137
    z: -0.0104397283775
    w: -0.00739888276357
---
header: 
  seq: 4754
  stamp: 
    secs: 1565218668
    nsecs: 953801393
  frame_id: "/stereo/left"
pose: 
  position: 
    x: 0.136725440187
    y: 0.0074172889887
    z: 0.434613945972
  orientation: 
    x: 0.00334705767425
    y: 0.999942168982
    z: -0.00939528394329
    w: -0.00402300098257
---
header: 
  seq: 4755
  stamp: 
    secs: 1565218670
    nsecs: 137825250
  frame_id: "/stereo/left"
pose: 
  position: 
    x: 0.136475730761
    y: 0.00835933343499
    z: 0.434624389269
  orientation: 
    x: 0.00513838286913
    y: 0.999765262808
    z: 0.000198643800954
    w: 0.0210470151002
---
header: 
  seq: 4756
  stamp: 
    secs: 1565218670
    nsecs: 710644721
  frame_id: "/stereo/left"
pose: 
  position: 
    x: 0.136582165342
    y: 0.00756159556883
    z: 0.434797024877
  orientation: 
    x: 0.00241491816142
    y: 0.999936543277
    z: -0.0107456291287
    w: 0.00236834205508
---
header: 
  seq: 4757
  stamp: 
    secs: 1565218671
    nsecs: 274274587
  frame_id: "/stereo/left"
pose: 
  position: 
    x: 0.136470368598
    y: 0.00774316966683
    z: 0.434977208569
  orientation: 
    x: 0.00283176915847
    y: 0.999924182018
    z: -0.00698268194041
    w: 0.00973927365787
---
header: 
  seq: 4758
  stamp: 
    secs: 1565218671
    nsecs: 867460966
  frame_id: "/stereo/left"
pose: 
  position: 
    x: 0.136230189395
    y: 0.00858840266642
    z: 0.433232019551
  orientation: 
    x: 0.00648363243316
    y: 0.999602799341
    z: 0.00425234529957
    w: 0.0270947157256
---
header: 
  seq: 4759
  stamp: 
    secs: 1565218673
    nsecs:  47967433
  frame_id: "/stereo/left"
pose: 
  position: 
    x: 0.13646583306
    y: 0.00781320252099
    z: 0.435108687793
  orientation: 
    x: 0.00262873960422
    y: 0.999904620307
    z: -0.0073466992343
    w: 0.0113958776205
---
header: 
  seq: 4760
  stamp: 
    secs: 1565218673
    nsecs: 670549631
  frame_id: "/stereo/left"
pose: 
  position: 
    x: 0.136466787012
    y: 0.00831513194655
    z: 0.434926458599
  orientation: 
    x: 0.00450633861859
    y: 0.999754441404
    z: -0.000346057243851
    w: 0.0216940095182
---
header: 
  seq: 4761
  stamp: 
    secs: 1565218674
    nsecs: 233035564
  frame_id: "/stereo/left"
pose: 
  position: 
    x: 0.136432419341
    y: 0.00840442747529
    z: 0.434486499295
  orientation: 
    x: 0.00479316411341
    y: 0.999747918315
    z: -0.000495790349935
    w: 0.0219289670215
---
header: 
  seq: 4762
  stamp: 
    secs: 1565218674
    nsecs: 801434516
  frame_id: "/stereo/left"
pose: 
  position: 
    x: 0.13656371963
    y: 0.00769020674197
    z: 0.434941698203
  orientation: 
    x: 0.00186922206879
    y: 0.999912334386
    z: -0.012625191318
    w: 0.00352620128726
---
header: 
  seq: 4763
  stamp: 
    secs: 1565218676
    nsecs:  29034376
  frame_id: "/stereo/left"
pose: 
  position: 
    x: 0.136499714833
    y: 0.00759255274533
    z: 0.434895505612
  orientation: 
    x: 0.00156764251671
    y: 0.999905855502
    z: -0.0134452135821
    w: 0.00224696705474
---
header: 
  seq: 4764
  stamp: 
    secs: 1565218676
    nsecs: 602571249
  frame_id: "/stereo/left"
pose: 
  position: 
    x: 0.136465493042
    y: 0.00772074298695
    z: 0.434787721503
  orientation: 
    x: 0.00269201392646
    y: 0.999924122265
    z: -0.00708490723525
    w: 0.00971117203259
---
header: 
  seq: 4765
  stamp: 
    secs: 1565218677
    nsecs: 224020004
  frame_id: "/stereo/left"
pose: 
  position: 
    x: 0.136413673666
    y: 0.00830057707118
    z: 0.434651682437
  orientation: 
    x: 0.00442421019446
    y: 0.999745069779
    z: 2.4106682665e-05
    w: 0.0221409402689
---
header: 
  seq: 4766
  stamp: 
    secs: 1565218677
    nsecs: 797098636
  frame_id: "/stereo/left"
pose: 
  position: 
    x: 0.136300955886
    y: 0.00825937755326
    z: 0.434112910386
  orientation: 
    x: 0.0056579654033
    y: 0.999707161165
    z: 0.00438925319058
    w: 0.0231152287298
---
