header: 
  seq: 2925
  stamp: 
    secs: 1565217305
    nsecs: 408536195
  frame_id: "/stereo/left"
pose: 
  position: 
    x: -0.0116187708193
    y: -0.00273199035662
    z: 0.541509112972
  orientation: 
    x: -0.016244621621
    y: -0.9990017042
    z: -0.0382448815328
    w: 0.0164023263454
---
header: 
  seq: 2926
  stamp: 
    secs: 1565217306
    nsecs:  63705921
  frame_id: "/stereo/left"
pose: 
  position: 
    x: -0.0115569347592
    y: -0.00275209674124
    z: 0.540889423613
  orientation: 
    x: -0.016103861019
    y: -0.998869565391
    z: -0.0410180164219
    w: 0.0178263659964
---
header: 
  seq: 2927
  stamp: 
    secs: 1565217307
    nsecs: 249381303
  frame_id: "/stereo/left"
pose: 
  position: 
    x: -0.0115812318076
    y: -0.00271857567613
    z: 0.541441785578
  orientation: 
    x: -0.0162111448227
    y: -0.998850282495
    z: -0.0414633824545
    w: 0.0177791973786
---
header: 
  seq: 2928
  stamp: 
    secs: 1565217307
    nsecs: 815214872
  frame_id: "/stereo/left"
pose: 
  position: 
    x: -0.011552260586
    y: -0.00276566664373
    z: 0.541016077031
  orientation: 
    x: -0.0159886883906
    y: -0.998912257925
    z: -0.0403190992878
    w: 0.0171182079508
---
header: 
  seq: 2929
  stamp: 
    secs: 1565217308
    nsecs: 422220706
  frame_id: "/stereo/left"
pose: 
  position: 
    x: -0.0114831847563
    y: -0.00277778884478
    z: 0.540682982148
  orientation: 
    x: -0.0158839066544
    y: -0.99886405558
    z: -0.041353377928
    w: 0.0175555721262
---
header: 
  seq: 2930
  stamp: 
    secs: 1565217309
    nsecs: 553781032
  frame_id: "/stereo/left"
pose: 
  position: 
    x: -0.0113748603475
    y: -0.00275010975118
    z: 0.54070510341
  orientation: 
    x: -0.016653810927
    y: -0.998807209454
    z: -0.0410598014955
    w: 0.0205158871723
---
header: 
  seq: 2931
  stamp: 
    secs: 1565217310
    nsecs: 149571657
  frame_id: "/stereo/left"
pose: 
  position: 
    x: -0.0115143468219
    y: -0.00278429033439
    z: 0.540637132832
  orientation: 
    x: -0.0164674847894
    y: -0.99882058407
    z: -0.0423928698089
    w: 0.0170031576982
---
header: 
  seq: 2932
  stamp: 
    secs: 1565217310
    nsecs: 727144718
  frame_id: "/stereo/left"
pose: 
  position: 
    x: -0.0115004250434
    y: -0.00267537707783
    z: 0.541207020732
  orientation: 
    x: -0.015948268534
    y: -0.998647258232
    z: -0.0459157389021
    w: 0.0184675736874
---
header: 
  seq: 2933
  stamp: 
    secs: 1565217311
    nsecs: 302155256
  frame_id: "/stereo/left"
pose: 
  position: 
    x: -0.0115581832068
    y: -0.00266429540127
    z: 0.541554590908
  orientation: 
    x: -0.0158374213716
    y: -0.998925968524
    z: -0.0399586803232
    w: 0.0173028714043
---
header: 
  seq: 2934
  stamp: 
    secs: 1565217312
    nsecs: 503787040
  frame_id: "/stereo/left"
pose: 
  position: 
    x: -0.0114996169522
    y: -0.00292528510214
    z: 0.541124154291
  orientation: 
    x: -0.0173857564909
    y: -0.998863665611
    z: -0.0414565008942
    w: 0.0158262922501
---
header: 
  seq: 2935
  stamp: 
    secs: 1565217313
    nsecs:  84405183
  frame_id: "/stereo/left"
pose: 
  position: 
    x: -0.011510266186
    y: -0.00266520533375
    z: 0.541485127077
  orientation: 
    x: -0.0164446378929
    y: -0.998786561271
    z: -0.0425364409809
    w: 0.0185911295551
---
header: 
  seq: 2936
  stamp: 
    secs: 1565217313
    nsecs: 688254594
  frame_id: "/stereo/left"
pose: 
  position: 
    x: -0.0115229274955
    y: -0.00272451279607
    z: 0.541076881671
  orientation: 
    x: -0.0159975584905
    y: -0.998850759548
    z: -0.0417817914372
    w: 0.0171907003001
---
header: 
  seq: 2937
  stamp: 
    secs: 1565217314
    nsecs: 252047777
  frame_id: "/stereo/left"
pose: 
  position: 
    x: -0.0114229508805
    y: -0.0027473441275
    z: 0.54074941402
  orientation: 
    x: -0.0164263263844
    y: -0.998776712936
    z: -0.0423039229031
    w: 0.0196375050823
---
header: 
  seq: 2938
  stamp: 
    secs: 1565217315
    nsecs: 458539009
  frame_id: "/stereo/left"
pose: 
  position: 
    x: -0.0113312565632
    y: -0.00276617188265
    z: 0.540213953292
  orientation: 
    x: -0.0163702542942
    y: -0.998613341408
    z: -0.0450994079137
    w: 0.021666853529
---
header: 
  seq: 2939
  stamp: 
    secs: 1565217316
    nsecs:  24807929
  frame_id: "/stereo/left"
pose: 
  position: 
    x: -0.0112743942516
    y: -0.00284480826003
    z: 0.538953888291
  orientation: 
    x: -0.0165473740701
    y: -0.998516322559
    z: -0.0480594082151
    w: 0.0195353852356
---
header: 
  seq: 2940
  stamp: 
    secs: 1565217316
    nsecs: 603672742
  frame_id: "/stereo/left"
pose: 
  position: 
    x: -0.0114886676646
    y: -0.00280080457168
    z: 0.540277383333
  orientation: 
    x: -0.0163160051293
    y: -0.998794852145
    z: -0.04276000485
    w: 0.0177260624376
---
header: 
  seq: 2941
  stamp: 
    secs: 1565217317
    nsecs: 765121221
  frame_id: "/stereo/left"
pose: 
  position: 
    x: -0.0115959644021
    y: -0.00271635860868
    z: 0.541607000822
  orientation: 
    x: -0.0163153018398
    y: -0.998915369768
    z: -0.0401656401444
    w: 0.0169887115199
---
header: 
  seq: 2942
  stamp: 
    secs: 1565217318
    nsecs: 326954364
  frame_id: "/stereo/left"
pose: 
  position: 
    x: -0.0114533410275
    y: -0.00273064929561
    z: 0.541233623873
  orientation: 
    x: -0.0167870902387
    y: -0.99881906807
    z: -0.0411873522209
    w: 0.0195515952584
---
header: 
  seq: 2943
  stamp: 
    secs: 1565217318
    nsecs: 934093475
  frame_id: "/stereo/left"
pose: 
  position: 
    x: -0.0114345852005
    y: -0.00276750569246
    z: 0.540283471962
  orientation: 
    x: -0.0159486360546
    y: -0.998852360157
    z: -0.0413415058561
    w: 0.0181792054319
---
header: 
  seq: 2944
  stamp: 
    secs: 1565217320
    nsecs:  72430133
  frame_id: "/stereo/left"
pose: 
  position: 
    x: -0.0115341802069
    y: -0.0027348959973
    z: 0.541300722714
  orientation: 
    x: -0.0160984090391
    y: -0.998749655358
    z: -0.0435095330895
    w: 0.0186249209181
---
header: 
  seq: 2945
  stamp: 
    secs: 1565217320
    nsecs: 717247009
  frame_id: "/stereo/left"
pose: 
  position: 
    x: -0.0114423185116
    y: -0.00277470846601
    z: 0.54027569291
  orientation: 
    x: -0.0160159437901
    y: -0.998719420022
    z: -0.0440893495079
    w: 0.0189509597422
---
header: 
  seq: 2946
  stamp: 
    secs: 1565217321
    nsecs: 286411523
  frame_id: "/stereo/left"
pose: 
  position: 
    x: -0.0113807815176
    y: -0.00281011517108
    z: 0.539433540603
  orientation: 
    x: -0.0162184632089
    y: -0.998618794784
    z: -0.0463235400229
    w: 0.0187508345256
---
header: 
  seq: 2947
  stamp: 
    secs: 1565217321
    nsecs: 863724946
  frame_id: "/stereo/left"
pose: 
  position: 
    x: -0.0113807304471
    y: -0.00276962859088
    z: 0.540261225564
  orientation: 
    x: -0.0166303997331
    y: -0.99873240778
    z: -0.0430058922149
    w: 0.0201866463196
---
header: 
  seq: 2948
  stamp: 
    secs: 1565217323
    nsecs:  38702726
  frame_id: "/stereo/left"
pose: 
  position: 
    x: -0.0115268988083
    y: -0.00278508215322
    z: 0.5412087167
  orientation: 
    x: -0.0161276360854
    y: -0.998860028519
    z: -0.0418092931056
    w: 0.0164476682912
---
header: 
  seq: 2949
  stamp: 
    secs: 1565217323
    nsecs: 607126235
  frame_id: "/stereo/left"
pose: 
  position: 
    x: -0.0115313240023
    y: -0.00274289916615
    z: 0.540961912792
  orientation: 
    x: -0.0161345203945
    y: -0.998850446067
    z: -0.0417424828803
    w: 0.017176401419
---
header: 
  seq: 2950
  stamp: 
    secs: 1565217324
    nsecs: 258115768
  frame_id: "/stereo/left"
pose: 
  position: 
    x: -0.0114270587791
    y: -0.00277865077622
    z: 0.540722196683
  orientation: 
    x: -0.0166136033871
    y: -0.99881380515
    z: -0.0415300840154
    w: 0.0192411783743
---
header: 
  seq: 2951
  stamp: 
    secs: 1565217324
    nsecs: 826331615
  frame_id: "/stereo/left"
pose: 
  position: 
    x: -0.0114742746435
    y: -0.00277802466072
    z: 0.540730171827
  orientation: 
    x: -0.0159062501185
    y: -0.998845059985
    z: -0.041818545391
    w: 0.017514183185
---
header: 
  seq: 2952
  stamp: 
    secs: 1565217326
    nsecs:   7843971
  frame_id: "/stereo/left"
pose: 
  position: 
    x: -0.0113763097841
    y: -0.00276934904147
    z: 0.539981212745
  orientation: 
    x: -0.0163762630682
    y: -0.998647257464
    z: -0.044863620571
    w: 0.0205603676288
---
header: 
  seq: 2953
  stamp: 
    secs: 1565217326
    nsecs: 579384326
  frame_id: "/stereo/left"
pose: 
  position: 
    x: -0.0114927381069
    y: -0.00277697291985
    z: 0.540575917647
  orientation: 
    x: -0.0160677556428
    y: -0.998852547581
    z: -0.0414788607963
    w: 0.0177459721052
---
header: 
  seq: 2954
  stamp: 
    secs: 1565217327
    nsecs: 150725841
  frame_id: "/stereo/left"
pose: 
  position: 
    x: -0.011594080654
    y: -0.00274445299482
    z: 0.541360820694
  orientation: 
    x: -0.016488408106
    y: -0.998870421208
    z: -0.0411976730178
    w: 0.0169931095263
---
header: 
  seq: 2955
  stamp: 
    secs: 1565217327
    nsecs: 801444530
  frame_id: "/stereo/left"
pose: 
  position: 
    x: -0.0115869013268
    y: -0.00278377807232
    z: 0.541074963806
  orientation: 
    x: -0.0161183995254
    y: -0.998911238507
    z: -0.0409855600692
    w: 0.0153856636811
---
header: 
  seq: 2956
  stamp: 
    secs: 1565217328
    nsecs: 953971862
  frame_id: "/stereo/left"
pose: 
  position: 
    x: -0.011633423562
    y: -0.00275218704793
    z: 0.541538942007
  orientation: 
    x: -0.0159268082262
    y: -0.998929603837
    z: -0.0404948140454
    w: 0.0156892763618
---
header: 
  seq: 2957
  stamp: 
    secs: 1565217329
    nsecs: 552683830
  frame_id: "/stereo/left"
pose: 
  position: 
    x: -0.0114605692376
    y: -0.00275982037614
    z: 0.540951262522
  orientation: 
    x: -0.0165865702935
    y: -0.998881432628
    z: -0.0396573611644
    w: 0.0196993132494
---
header: 
  seq: 2958
  stamp: 
    secs: 1565217330
    nsecs: 133003234
  frame_id: "/stereo/left"
pose: 
  position: 
    x: -0.0114944243803
    y: -0.00273810437285
    z: 0.54081733355
  orientation: 
    x: -0.0161675297274
    y: -0.998915356787
    z: -0.0399781814996
    w: 0.017563199043
---
header: 
  seq: 2959
  stamp: 
    secs: 1565217330
    nsecs: 712973356
  frame_id: "/stereo/left"
pose: 
  position: 
    x: -0.0114086014834
    y: -0.00275570503324
    z: 0.540215169484
  orientation: 
    x: -0.0164621617508
    y: -0.998731282017
    z: -0.0427228047713
    w: 0.0209662944898
---
header: 
  seq: 2960
  stamp: 
    secs: 1565217331
    nsecs: 915766954
  frame_id: "/stereo/left"
pose: 
  position: 
    x: -0.011481088167
    y: -0.00276106451191
    z: 0.540302562567
  orientation: 
    x: -0.0164599705108
    y: -0.99876507491
    z: -0.0432674194914
    w: 0.0180367658362
---
header: 
  seq: 2961
  stamp: 
    secs: 1565217332
    nsecs: 493772029
  frame_id: "/stereo/left"
pose: 
  position: 
    x: -0.0115542644229
    y: -0.00273695083353
    z: 0.54125475425
  orientation: 
    x: -0.0162650652059
    y: -0.99892599551
    z: -0.0396444606086
    w: 0.0176244117845
---
header: 
  seq: 2962
  stamp: 
    secs: 1565217333
    nsecs:  97864627
  frame_id: "/stereo/left"
pose: 
  position: 
    x: -0.0113840035469
    y: -0.00273748651267
    z: 0.540589565399
  orientation: 
    x: -0.0163038110511
    y: -0.998759395978
    z: -0.0422299903767
    w: 0.0207480747029
---
header: 
  seq: 2963
  stamp: 
    secs: 1565217333
    nsecs: 663556575
  frame_id: "/stereo/left"
pose: 
  position: 
    x: -0.011479019993
    y: -0.00273657038764
    z: 0.541375158592
  orientation: 
    x: -0.0164717272308
    y: -0.998892397153
    z: -0.039332725698
    w: 0.0198896405681
---
