header: 
  seq: 2317
  stamp: 
    secs: 1565216850
    nsecs: 676840782
  frame_id: "/stereo/left"
pose: 
  position: 
    x: 0.0896252971369
    y: -0.0125013285278
    z: 0.578812575224
  orientation: 
    x: 0.0146499071563
    y: 0.99878077597
    z: 0.0470163043816
    w: -0.00343640726528
---
header: 
  seq: 2318
  stamp: 
    secs: 1565216851
    nsecs: 308617353
  frame_id: "/stereo/left"
pose: 
  position: 
    x: 0.0897642882948
    y: -0.0125768544624
    z: 0.579720966222
  orientation: 
    x: 0.0157998611643
    y: 0.998449985796
    z: 0.0533663558512
    w: 0.000149380940156
---
header: 
  seq: 2319
  stamp: 
    secs: 1565216852
    nsecs: 540113210
  frame_id: "/stereo/left"
pose: 
  position: 
    x: 0.0894776336889
    y: -0.0125322607918
    z: 0.57850679757
  orientation: 
    x: 0.0146556127378
    y: 0.998813034251
    z: 0.0463178291071
    w: -0.00352055851057
---
header: 
  seq: 2320
  stamp: 
    secs: 1565216853
    nsecs: 111242771
  frame_id: "/stereo/left"
pose: 
  position: 
    x: 0.0896163592514
    y: -0.0125846570853
    z: 0.578852932764
  orientation: 
    x: 0.0148299582205
    y: 0.998677390626
    z: 0.04922521419
    w: -0.000648136067916
---
header: 
  seq: 2321
  stamp: 
    secs: 1565216853
    nsecs: 700053930
  frame_id: "/stereo/left"
pose: 
  position: 
    x: 0.0895170013565
    y: -0.0124948560089
    z: 0.578978310333
  orientation: 
    x: 0.014321961566
    y: 0.998850640708
    z: 0.0456961663018
    w: -0.00203454168543
---
header: 
  seq: 2322
  stamp: 
    secs: 1565216854
    nsecs: 865493774
  frame_id: "/stereo/left"
pose: 
  position: 
    x: 0.0897578964548
    y: -0.0126253381074
    z: 0.579816584033
  orientation: 
    x: 0.0151412296164
    y: 0.99842874881
    z: 0.053950213043
    w: -0.00038888035399
---
header: 
  seq: 2323
  stamp: 
    secs: 1565216855
    nsecs: 425879001
  frame_id: "/stereo/left"
pose: 
  position: 
    x: 0.0895348377013
    y: -0.0125291970239
    z: 0.578687977729
  orientation: 
    x: 0.014826022515
    y: 0.998775983841
    z: 0.0471018583531
    w: -0.00285273523598
---
header: 
  seq: 2324
  stamp: 
    secs: 1565216856
    nsecs:  28399229
  frame_id: "/stereo/left"
pose: 
  position: 
    x: 0.0895444397024
    y: -0.012541975141
    z: 0.57838893108
  orientation: 
    x: 0.0147192882271
    y: 0.99872617219
    z: 0.0481938677748
    w: -0.00259357785941
---
header: 
  seq: 2325
  stamp: 
    secs: 1565216857
    nsecs: 173324108
  frame_id: "/stereo/left"
pose: 
  position: 
    x: 0.0897960764627
    y: -0.0125771612405
    z: 0.579612844832
  orientation: 
    x: 0.0152083867381
    y: 0.99841747476
    z: 0.0541282432793
    w: -0.00117658275188
---
header: 
  seq: 2326
  stamp: 
    secs: 1565216857
    nsecs: 811016082
  frame_id: "/stereo/left"
pose: 
  position: 
    x: 0.0895351998828
    y: -0.0125085079864
    z: 0.578808340145
  orientation: 
    x: 0.0144932689891
    y: 0.998796510646
    z: 0.0467767754948
    w: -0.00272190202464
---
header: 
  seq: 2327
  stamp: 
    secs: 1565216858
    nsecs: 387098312
  frame_id: "/stereo/left"
pose: 
  position: 
    x: 0.089725663233
    y: -0.0125981978581
    z: 0.579436710753
  orientation: 
    x: 0.0149800778793
    y: 0.998550130456
    z: 0.0517029328966
    w: 0.000202394753327
---
header: 
  seq: 2328
  stamp: 
    secs: 1565216858
    nsecs: 963603258
  frame_id: "/stereo/left"
pose: 
  position: 
    x: 0.0896943259326
    y: -0.0125857483062
    z: 0.578638208169
  orientation: 
    x: 0.0146444314567
    y: 0.998779250536
    z: 0.0471530657185
    w: -0.00146209405026
---
header: 
  seq: 2329
  stamp: 
    secs: 1565216860
    nsecs: 149855375
  frame_id: "/stereo/left"
pose: 
  position: 
    x: 0.0897934610763
    y: -0.0125915234048
    z: 0.580030263086
  orientation: 
    x: 0.015112405573
    y: 0.998625768486
    z: 0.0501791091285
    w: 0.00049670915303
---
header: 
  seq: 2330
  stamp: 
    secs: 1565216860
    nsecs: 715585231
  frame_id: "/stereo/left"
pose: 
  position: 
    x: 0.0896443259427
    y: -0.0125106599448
    z: 0.579394037152
  orientation: 
    x: 0.0150131735103
    y: 0.998821327143
    z: 0.0461317322559
    w: -0.00155703059974
---
header: 
  seq: 2331
  stamp: 
    secs: 1565216861
    nsecs: 356645107
  frame_id: "/stereo/left"
pose: 
  position: 
    x: 0.0899046052436
    y: -0.0125714882257
    z: 0.580141596302
  orientation: 
    x: 0.0158108446585
    y: 0.998477603536
    z: 0.0528438526146
    w: 0.000140248248935
---
header: 
  seq: 2332
  stamp: 
    secs: 1565216861
    nsecs: 930605173
  frame_id: "/stereo/left"
pose: 
  position: 
    x: 0.0896226537926
    y: -0.012507224117
    z: 0.578605256605
  orientation: 
    x: 0.0146772274436
    y: 0.998756968728
    z: 0.0476112395413
    w: 0.00150541730804
---
header: 
  seq: 2333
  stamp: 
    secs: 1565216863
    nsecs: 102856159
  frame_id: "/stereo/left"
pose: 
  position: 
    x: 0.089686308745
    y: -0.0124246014832
    z: 0.580108144463
  orientation: 
    x: 0.0150083025142
    y: 0.998918070867
    z: 0.0440159252319
    w: 0.000192032795703
---
header: 
  seq: 2334
  stamp: 
    secs: 1565216863
    nsecs: 660665512
  frame_id: "/stereo/left"
pose: 
  position: 
    x: 0.0896100104833
    y: -0.0124816984158
    z: 0.579385732821
  orientation: 
    x: 0.0148693158219
    y: 0.998869402316
    z: 0.0451368287083
    w: -0.00121953214558
---
header: 
  seq: 2335
  stamp: 
    secs: 1565216864
    nsecs: 220030784
  frame_id: "/stereo/left"
pose: 
  position: 
    x: 0.0897379290971
    y: -0.0125173955925
    z: 0.58027655268
  orientation: 
    x: 0.0153697121959
    y: 0.998535651244
    z: 0.0518292350626
    w: 0.00201383579373
---
header: 
  seq: 2336
  stamp: 
    secs: 1565216865
    nsecs: 401842594
  frame_id: "/stereo/left"
pose: 
  position: 
    x: 0.089774716991
    y: -0.0125902777946
    z: 0.579970018763
  orientation: 
    x: 0.0154717179501
    y: 0.998487690297
    z: 0.0527466807386
    w: -0.000863678406633
---
header: 
  seq: 2337
  stamp: 
    secs: 1565216865
    nsecs: 981510877
  frame_id: "/stereo/left"
pose: 
  position: 
    x: 0.0895784609552
    y: -0.0125394019787
    z: 0.578748398809
  orientation: 
    x: 0.0149833582833
    y: 0.998790235523
    z: 0.0468276262018
    w: -0.00085896613281
---
header: 
  seq: 2338
  stamp: 
    secs: 1565216866
    nsecs: 616130352
  frame_id: "/stereo/left"
pose: 
  position: 
    x: 0.0896074221113
    y: -0.0125139263009
    z: 0.579089145345
  orientation: 
    x: 0.0147726077384
    y: 0.998811650535
    z: 0.0463824572739
    w: -0.0023925872886
---
header: 
  seq: 2339
  stamp: 
    secs: 1565216867
    nsecs: 183565855
  frame_id: "/stereo/left"
pose: 
  position: 
    x: 0.0897016805685
    y: -0.0126228831352
    z: 0.579345014673
  orientation: 
    x: 0.0152841346824
    y: 0.998523371008
    z: 0.0521201701083
    w: -0.000980125283551
---
header: 
  seq: 2340
  stamp: 
    secs: 1565216868
    nsecs: 364494800
  frame_id: "/stereo/left"
pose: 
  position: 
    x: 0.0897742087759
    y: -0.0125123588422
    z: 0.579702787649
  orientation: 
    x: 0.0156496356742
    y: 0.998477064001
    z: 0.052894109108
    w: -0.000924547412707
---
header: 
  seq: 2341
  stamp: 
    secs: 1565216868
    nsecs: 929284334
  frame_id: "/stereo/left"
pose: 
  position: 
    x: 0.0898125633006
    y: -0.0125641674701
    z: 0.57920005361
  orientation: 
    x: 0.0155708189799
    y: 0.998417459492
    z: 0.0540340340888
    w: -0.000670326269853
---
header: 
  seq: 2342
  stamp: 
    secs: 1565216869
    nsecs: 499799013
  frame_id: "/stereo/left"
pose: 
  position: 
    x: 0.0895643529123
    y: -0.0125366643564
    z: 0.578679756301
  orientation: 
    x: 0.014666716711
    y: 0.998734539057
    z: 0.0480495212052
    w: -0.00233482941627
---
header: 
  seq: 2343
  stamp: 
    secs: 1565216870
    nsecs: 152059316
  frame_id: "/stereo/left"
pose: 
  position: 
    x: 0.0895130611262
    y: -0.0124898646656
    z: 0.579124691987
  orientation: 
    x: 0.0150102736919
    y: 0.998855351976
    z: 0.0453877127601
    w: -0.00162266511608
---
header: 
  seq: 2344
  stamp: 
    secs: 1565216871
    nsecs: 290093421
  frame_id: "/stereo/left"
pose: 
  position: 
    x: 0.0898146567526
    y: -0.0125723490763
    z: 0.579934911585
  orientation: 
    x: 0.0158922906815
    y: 0.998478738534
    z: 0.0527893997677
    w: -0.000960762293534
---
header: 
  seq: 2345
  stamp: 
    secs: 1565216871
    nsecs: 894962549
  frame_id: "/stereo/left"
pose: 
  position: 
    x: 0.0897995708417
    y: -0.012589439392
    z: 0.579752718491
  orientation: 
    x: 0.0152474016713
    y: 0.998588084304
    z: 0.0508739536603
    w: -0.00109337397189
---
header: 
  seq: 2346
  stamp: 
    secs: 1565216872
    nsecs: 457038640
  frame_id: "/stereo/left"
pose: 
  position: 
    x: 0.0897899207334
    y: -0.0126190255238
    z: 0.579794718552
  orientation: 
    x: 0.0159209950491
    y: 0.998512513222
    z: 0.052126933194
    w: 0.00143725139692
---
header: 
  seq: 2347
  stamp: 
    secs: 1565216873
    nsecs:  45072317
  frame_id: "/stereo/left"
pose: 
  position: 
    x: 0.0896518922489
    y: -0.0125257531554
    z: 0.579168030692
  orientation: 
    x: 0.0145960309851
    y: 0.998831805052
    z: 0.0460574655876
    w: -0.000831239848548
---
header: 
  seq: 2348
  stamp: 
    secs: 1565216874
    nsecs: 255190849
  frame_id: "/stereo/left"
pose: 
  position: 
    x: 0.0897114698213
    y: -0.0125759906462
    z: 0.578883426813
  orientation: 
    x: 0.0149196244729
    y: 0.998743736697
    z: 0.0478167135427
    w: -0.0013838789002
---
header: 
  seq: 2349
  stamp: 
    secs: 1565216874
    nsecs: 832966327
  frame_id: "/stereo/left"
pose: 
  position: 
    x: 0.0898443000884
    y: -0.0125560716631
    z: 0.580257946307
  orientation: 
    x: 0.0162216108665
    y: 0.998404224526
    z: 0.0540911477418
    w: -0.00010735345905
---
header: 
  seq: 2350
  stamp: 
    secs: 1565216875
    nsecs: 447061777
  frame_id: "/stereo/left"
pose: 
  position: 
    x: 0.089691836873
    y: -0.0124823512236
    z: 0.579782805749
  orientation: 
    x: 0.0148874161452
    y: 0.998849776959
    z: 0.0455734159167
    w: -0.000742745300652
---
header: 
  seq: 2351
  stamp: 
    secs: 1565216876
    nsecs: 591213464
  frame_id: "/stereo/left"
pose: 
  position: 
    x: 0.0899302379058
    y: -0.0125583485461
    z: 0.58062467353
  orientation: 
    x: 0.0160366333109
    y: 0.998505636422
    z: 0.0522423221108
    w: 0.000245370013531
---
header: 
  seq: 2352
  stamp: 
    secs: 1565216877
    nsecs: 201215267
  frame_id: "/stereo/left"
pose: 
  position: 
    x: 0.0897842425725
    y: -0.0126202123641
    z: 0.580290896803
  orientation: 
    x: 0.0157931387562
    y: 0.998620619522
    z: 0.0500742462455
    w: -6.99769689084e-05
---
header: 
  seq: 2353
  stamp: 
    secs: 1565216877
    nsecs: 776098489
  frame_id: "/stereo/left"
pose: 
  position: 
    x: 0.0897917189176
    y: -0.0125508030135
    z: 0.579983218571
  orientation: 
    x: 0.0153444325677
    y: 0.998641085379
    z: 0.0497645155573
    w: 0.00200598430075
---
header: 
  seq: 2354
  stamp: 
    secs: 1565216878
    nsecs: 338410139
  frame_id: "/stereo/left"
pose: 
  position: 
    x: 0.0896924984586
    y: -0.0125060782658
    z: 0.579511790946
  orientation: 
    x: 0.0150965937017
    y: 0.998841518638
    z: 0.0456826630024
    w: -0.000898779357395
---
header: 
  seq: 2355
  stamp: 
    secs: 1565216879
    nsecs: 548088788
  frame_id: "/stereo/left"
pose: 
  position: 
    x: 0.0895691302578
    y: -0.0119192417641
    z: 0.581501080802
  orientation: 
    x: -0.0141625551183
    y: -0.999083663474
    z: -0.0403290596968
    w: 0.00219598652237
---
