header: 
  seq: 3864
  stamp: 
    secs: 1565218002
    nsecs: 653762102
  frame_id: "/stereo/left"
pose: 
  position: 
    x: 0.0369830819482
    y: 0.00418701158166
    z: 0.487387553339
  orientation: 
    x: -0.0156351643942
    y: -0.999548337326
    z: -0.0242409353932
    w: 0.00842852504051
---
header: 
  seq: 3865
  stamp: 
    secs: 1565218003
    nsecs: 281248092
  frame_id: "/stereo/left"
pose: 
  position: 
    x: 0.0367607151032
    y: 0.00422813922864
    z: 0.487038920513
  orientation: 
    x: -0.0155694763402
    y: -0.999482516307
    z: -0.0279654892782
    w: 0.00319725085634
---
header: 
  seq: 3866
  stamp: 
    secs: 1565218003
    nsecs: 887014389
  frame_id: "/stereo/left"
pose: 
  position: 
    x: 0.0369526000557
    y: 0.00417460834506
    z: 0.486963871153
  orientation: 
    x: -0.0161177029419
    y: -0.999549438627
    z: -0.0244555982156
    w: 0.006562248774
---
header: 
  seq: 3867
  stamp: 
    secs: 1565218005
    nsecs:  71557521
  frame_id: "/stereo/left"
pose: 
  position: 
    x: 0.0367326674972
    y: 0.00421982421494
    z: 0.486931549908
  orientation: 
    x: -0.0154755382439
    y: -0.999481746344
    z: -0.0281811283087
    w: 0.00160326188779
---
header: 
  seq: 3868
  stamp: 
    secs: 1565218005
    nsecs: 643447160
  frame_id: "/stereo/left"
pose: 
  position: 
    x: 0.0370264477194
    y: 0.00416867821563
    z: 0.487221907063
  orientation: 
    x: -0.0165285781887
    y: -0.999506585352
    z: -0.0253400079947
    w: 0.00844250772693
---
header: 
  seq: 3869
  stamp: 
    secs: 1565218006
    nsecs: 236475944
  frame_id: "/stereo/left"
pose: 
  position: 
    x: 0.0367857194926
    y: 0.00420337397423
    z: 0.487474296218
  orientation: 
    x: -0.0155738873122
    y: -0.999576408905
    z: -0.0242396920304
    w: 0.00411024640642
---
header: 
  seq: 3870
  stamp: 
    secs: 1565218006
    nsecs: 802455186
  frame_id: "/stereo/left"
pose: 
  position: 
    x: 0.0364886629404
    y: 0.00421999819855
    z: 0.486702705088
  orientation: 
    x: -0.0162911584802
    y: -0.999455161159
    z: -0.0284155578427
    w: -0.00406633252896
---
header: 
  seq: 3871
  stamp: 
    secs: 1565218008
    nsecs:  13106107
  frame_id: "/stereo/left"
pose: 
  position: 
    x: 0.0367491108271
    y: 0.00424702763065
    z: 0.487126420806
  orientation: 
    x: -0.0152755432063
    y: -0.999510620373
    z: -0.0269275532409
    w: 0.00448156425687
---
header: 
  seq: 3872
  stamp: 
    secs: 1565218008
    nsecs: 578104257
  frame_id: "/stereo/left"
pose: 
  position: 
    x: 0.036950083946
    y: 0.00420783882653
    z: 0.487196639378
  orientation: 
    x: -0.0160450687782
    y: -0.999529036424
    z: -0.0250195594371
    w: 0.0076343144946
---
header: 
  seq: 3873
  stamp: 
    secs: 1565218009
    nsecs: 157790184
  frame_id: "/stereo/left"
pose: 
  position: 
    x: 0.036629950353
    y: 0.0042392353401
    z: 0.486843812382
  orientation: 
    x: -0.0153854536678
    y: -0.999511017715
    z: -0.0272156871654
    w: -0.000565379846918
---
header: 
  seq: 3874
  stamp: 
    secs: 1565218010
    nsecs: 320685625
  frame_id: "/stereo/left"
pose: 
  position: 
    x: 0.0370534909567
    y: 0.00419454822114
    z: 0.487229415274
  orientation: 
    x: -0.0165776599079
    y: -0.999491829721
    z: -0.0257403168447
    w: 0.00887127964979
---
header: 
  seq: 3875
  stamp: 
    secs: 1565218010
    nsecs: 877365112
  frame_id: "/stereo/left"
pose: 
  position: 
    x: 0.0369764833337
    y: 0.00421096355775
    z: 0.487474363841
  orientation: 
    x: -0.0158814762479
    y: -0.999538120175
    z: -0.0243692633895
    w: 0.00880136533753
---
header: 
  seq: 3876
  stamp: 
    secs: 1565218011
    nsecs: 482831716
  frame_id: "/stereo/left"
pose: 
  position: 
    x: 0.0366094398144
    y: 0.00426464322838
    z: 0.487172634469
  orientation: 
    x: -0.0151433947061
    y: -0.999541793904
    z: -0.0261965291426
    w: 0.000788477374551
---
header: 
  seq: 3877
  stamp: 
    secs: 1565218012
    nsecs: 616171121
  frame_id: "/stereo/left"
pose: 
  position: 
    x: 0.037041046872
    y: 0.00419875368985
    z: 0.487327683827
  orientation: 
    x: -0.0162933450184
    y: -0.999532531608
    z: -0.0242620970412
    w: 0.00897751707293
---
header: 
  seq: 3878
  stamp: 
    secs: 1565218013
    nsecs: 226024627
  frame_id: "/stereo/left"
pose: 
  position: 
    x: 0.0369341888126
    y: 0.0042135645689
    z: 0.487187600779
  orientation: 
    x: -0.0159051646365
    y: -0.999567809315
    z: -0.0234994526724
    w: 0.00768088813526
---
header: 
  seq: 3879
  stamp: 
    secs: 1565218013
    nsecs: 791965007
  frame_id: "/stereo/left"
pose: 
  position: 
    x: 0.0369179457948
    y: 0.00418798082439
    z: 0.487191645909
  orientation: 
    x: -0.0156130101555
    y: -0.999550196215
    z: -0.0245850204432
    w: 0.00715653062167
---
header: 
  seq: 3880
  stamp: 
    secs: 1565218014
    nsecs: 354177951
  frame_id: "/stereo/left"
pose: 
  position: 
    x: 0.036710365937
    y: 0.00421696582607
    z: 0.4866022707
  orientation: 
    x: -0.0163653743892
    y: -0.999450724399
    z: -0.028811771034
    w: 0.000553054887534
---
header: 
  seq: 3881
  stamp: 
    secs: 1565218015
    nsecs: 574764966
  frame_id: "/stereo/left"
pose: 
  position: 
    x: 0.0371161023347
    y: 0.0041753108718
    z: 0.486947757725
  orientation: 
    x: -0.0169728031208
    y: -0.999487838905
    z: -0.0255871495152
    w: 0.00901563169958
---
header: 
  seq: 3882
  stamp: 
    secs: 1565218016
    nsecs: 152215719
  frame_id: "/stereo/left"
pose: 
  position: 
    x: 0.0370554439861
    y: 0.00419324368145
    z: 0.487086548359
  orientation: 
    x: -0.0169628671526
    y: -0.999489905858
    z: -0.0256317752005
    w: 0.00867186982445
---
header: 
  seq: 3883
  stamp: 
    secs: 1565218016
    nsecs: 754548549
  frame_id: "/stereo/left"
pose: 
  position: 
    x: 0.0369651055621
    y: 0.00420845380141
    z: 0.487124729977
  orientation: 
    x: -0.0161476684328
    y: -0.999543061492
    z: -0.0247779254798
    w: 0.00624303097912
---
header: 
  seq: 3884
  stamp: 
    secs: 1565218017
    nsecs: 324088335
  frame_id: "/stereo/left"
pose: 
  position: 
    x: 0.0367249657565
    y: 0.00423788201011
    z: 0.48706929747
  orientation: 
    x: -0.0156959722796
    y: -0.999485246462
    z: -0.027945357429
    w: 0.00139124325442
---
header: 
  seq: 3885
  stamp: 
    secs: 1565218018
    nsecs: 538888216
  frame_id: "/stereo/left"
pose: 
  position: 
    x: 0.0369549689598
    y: 0.00421726813581
    z: 0.487248619155
  orientation: 
    x: -0.0157722708387
    y: -0.999555387368
    z: -0.0240911398154
    w: 0.00773821930202
---
header: 
  seq: 3886
  stamp: 
    secs: 1565218019
    nsecs: 104588031
  frame_id: "/stereo/left"
pose: 
  position: 
    x: 0.0370224662105
    y: 0.00418991497306
    z: 0.487593479893
  orientation: 
    x: -0.0160935911909
    y: -0.999523442125
    z: -0.0252099933607
    w: 0.00763814111243
---
header: 
  seq: 3887
  stamp: 
    secs: 1565218019
    nsecs: 679751157
  frame_id: "/stereo/left"
pose: 
  position: 
    x: 0.0368890051536
    y: 0.00422938043461
    z: 0.487251437345
  orientation: 
    x: -0.0155856951791
    y: -0.999493598984
    z: -0.0266913028117
    w: 0.00756346812551
---
header: 
  seq: 3888
  stamp: 
    secs: 1565218020
    nsecs: 851376771
  frame_id: "/stereo/left"
pose: 
  position: 
    x: 0.0367620383936
    y: 0.00420265272313
    z: 0.486941723566
  orientation: 
    x: -0.0156728811704
    y: -0.99948312219
    z: -0.0280665027946
    w: 0.000347382058175
---
header: 
  seq: 3889
  stamp: 
    secs: 1565218021
    nsecs: 429452896
  frame_id: "/stereo/left"
pose: 
  position: 
    x: 0.0370196880465
    y: 0.00416795352021
    z: 0.487273639671
  orientation: 
    x: -0.0161043477945
    y: -0.999494633556
    z: -0.0259855210093
    w: 0.00871092262084
---
header: 
  seq: 3890
  stamp: 
    secs: 1565218022
    nsecs:  20962476
  frame_id: "/stereo/left"
pose: 
  position: 
    x: 0.0369318438379
    y: 0.00416029965093
    z: 0.487123223652
  orientation: 
    x: -0.0159304687048
    y: -0.99955506273
    z: -0.0246319488335
    w: 0.00540035500517
---
header: 
  seq: 3891
  stamp: 
    secs: 1565218022
    nsecs: 580806016
  frame_id: "/stereo/left"
pose: 
  position: 
    x: 0.0366874199273
    y: 0.00424067712437
    z: 0.486951813244
  orientation: 
    x: -0.0157064094737
    y: -0.999495608272
    z: -0.0274790107201
    w: 0.00259648170162
---
header: 
  seq: 3892
  stamp: 
    secs: 1565218023
    nsecs: 744752645
  frame_id: "/stereo/left"
pose: 
  position: 
    x: 0.0369039375158
    y: 0.00419952658712
    z: 0.487309851976
  orientation: 
    x: -0.0156233486118
    y: -0.999555543621
    z: -0.0244085267495
    w: 0.00698927871473
---
header: 
  seq: 3893
  stamp: 
    secs: 1565218024
    nsecs: 309849023
  frame_id: "/stereo/left"
pose: 
  position: 
    x: 0.0369103934496
    y: 0.00423010069737
    z: 0.487253379471
  orientation: 
    x: -0.0156932004313
    y: -0.999550043245
    z: -0.0244654442736
    w: 0.00740787047689
---
header: 
  seq: 3894
  stamp: 
    secs: 1565218024
    nsecs: 881552219
  frame_id: "/stereo/left"
pose: 
  position: 
    x: 0.0366804643846
    y: 0.00421711396687
    z: 0.486762355528
  orientation: 
    x: -0.0169351304684
    y: -0.999428212218
    z: -0.0291687965068
    w: -0.00237303383372
---
header: 
  seq: 3895
  stamp: 
    secs: 1565218025
    nsecs: 475338459
  frame_id: "/stereo/left"
pose: 
  position: 
    x: 0.0369710775467
    y: 0.00418894014609
    z: 0.487121389058
  orientation: 
    x: -0.0164996478199
    y: -0.999492507656
    z: -0.026348472124
    w: 0.00694599012704
---
header: 
  seq: 3896
  stamp: 
    secs: 1565218026
    nsecs: 611322879
  frame_id: "/stereo/left"
pose: 
  position: 
    x: 0.0367272397836
    y: 0.00426911922164
    z: 0.487145678892
  orientation: 
    x: -0.0158425364772
    y: -0.999462411326
    z: -0.0286211138692
    w: 0.0021758273841
---
header: 
  seq: 3897
  stamp: 
    secs: 1565218027
    nsecs: 254564762
  frame_id: "/stereo/left"
pose: 
  position: 
    x: 0.0369784884976
    y: 0.00417211965325
    z: 0.487600894151
  orientation: 
    x: -0.0161305344756
    y: -0.999528496541
    z: -0.0253346227996
    w: 0.00638336484617
---
header: 
  seq: 3898
  stamp: 
    secs: 1565218027
    nsecs: 819583415
  frame_id: "/stereo/left"
pose: 
  position: 
    x: 0.0370726009992
    y: 0.00420668986832
    z: 0.48770615915
  orientation: 
    x: -0.0166447949958
    y: -0.999499865481
    z: -0.0253910921653
    w: 0.00884658922931
---
header: 
  seq: 3899
  stamp: 
    secs: 1565218028
    nsecs: 393082141
  frame_id: "/stereo/left"
pose: 
  position: 
    x: 0.036987715317
    y: 0.00420382432209
    z: 0.487378090958
  orientation: 
    x: -0.0157536471392
    y: -0.999570525009
    z: -0.0232428569324
    w: 0.00838795185339
---
header: 
  seq: 3900
  stamp: 
    secs: 1565218029
    nsecs: 578369617
  frame_id: "/stereo/left"
pose: 
  position: 
    x: 0.0370850264878
    y: 0.00417196394908
    z: 0.487373251573
  orientation: 
    x: -0.0164185973587
    y: -0.999516172808
    z: -0.0249563609191
    w: 0.00866198619715
---
header: 
  seq: 3901
  stamp: 
    secs: 1565218030
    nsecs: 142979621
  frame_id: "/stereo/left"
pose: 
  position: 
    x: 0.0369671484614
    y: 0.00421731622627
    z: 0.487543924686
  orientation: 
    x: -0.015855206664
    y: -0.999536745119
    z: -0.0246091015469
    w: 0.00832464414152
---
header: 
  seq: 3902
  stamp: 
    secs: 1565218030
    nsecs: 780024290
  frame_id: "/stereo/left"
pose: 
  position: 
    x: 0.0366868204698
    y: 0.00425989235638
    z: 0.486897505105
  orientation: 
    x: -0.0153955849257
    y: -0.999503403589
    z: -0.0271719032706
    w: 0.004196409427
---
header: 
  seq: 3903
  stamp: 
    secs: 1565218031
    nsecs: 345564603
  frame_id: "/stereo/left"
pose: 
  position: 
    x: 0.0369475487599
    y: 0.00421141566241
    z: 0.487054570549
  orientation: 
    x: -0.0160422629454
    y: -0.999514497778
    z: -0.0254923882124
    w: 0.00797199315814
---
