header: 
  seq: 5102
  stamp: 
    secs: 1565218990
    nsecs: 443533658
  frame_id: "/stereo/left"
pose: 
  position: 
    x: 0.233188978803
    y: 0.00616607748452
    z: 0.42906779422
  orientation: 
    x: -0.00280947879346
    y: 0.999734748585
    z: 0.0180907168522
    w: 0.013973734801
---
header: 
  seq: 5103
  stamp: 
    secs: 1565218991
    nsecs:  71302890
  frame_id: "/stereo/left"
pose: 
  position: 
    x: 0.226258488655
    y: 0.00742145104804
    z: 0.419381568637
  orientation: 
    x: -0.0118921814286
    y: 0.999372870322
    z: 0.00241203942821
    w: 0.0332659608324
---
header: 
  seq: 5104
  stamp: 
    secs: 1565218991
    nsecs: 639743804
  frame_id: "/stereo/left"
pose: 
  position: 
    x: 0.236755876892
    y: 0.00438591656198
    z: 0.43466053086
  orientation: 
    x: -0.00568253102296
    y: 0.999520757565
    z: 0.00868324647331
    w: -0.029164452138
---
header: 
  seq: 5105
  stamp: 
    secs: 1565218992
    nsecs: 275799989
  frame_id: "/stereo/left"
pose: 
  position: 
    x: 0.237056909918
    y: 0.00501443569915
    z: 0.434761819689
  orientation: 
    x: -0.00335287588366
    y: 0.99984437207
    z: 0.0173162418471
    w: 0.000370987825239
---
header: 
  seq: 5106
  stamp: 
    secs: 1565218993
    nsecs: 430660009
  frame_id: "/stereo/left"
pose: 
  position: 
    x: 0.236848283759
    y: 0.00457215150234
    z: 0.434580334463
  orientation: 
    x: -0.00443912441009
    y: 0.999649774616
    z: 0.011144081065
    w: -0.0235888054295
---
header: 
  seq: 5107
  stamp: 
    secs: 1565218994
    nsecs:  27869462
  frame_id: "/stereo/left"
pose: 
  position: 
    x: 0.232809185097
    y: 0.00650821432027
    z: 0.428642206914
  orientation: 
    x: -0.00443631122183
    y: 0.999710408596
    z: 0.0168086198522
    w: 0.0166399635086
---
header: 
  seq: 5108
  stamp: 
    secs: 1565218994
    nsecs: 586903810
  frame_id: "/stereo/left"
pose: 
  position: 
    x: 0.233798890968
    y: 0.00622076685401
    z: 0.430063726121
  orientation: 
    x: -0.0031724300773
    y: 0.999732764241
    z: 0.0172096457595
    w: 0.0151050946144
---
header: 
  seq: 5109
  stamp: 
    secs: 1565218995
    nsecs: 157558202
  frame_id: "/stereo/left"
pose: 
  position: 
    x: 0.236601949023
    y: 0.00446801391743
    z: 0.434397393138
  orientation: 
    x: -0.00617931595439
    y: 0.999576937793
    z: 0.00888416208858
    w: -0.0269969100222
---
header: 
  seq: 5110
  stamp: 
    secs: 1565218996
    nsecs: 377160549
  frame_id: "/stereo/left"
pose: 
  position: 
    x: 0.237000245624
    y: 0.00468752642853
    z: 0.434820823177
  orientation: 
    x: -0.00619877001739
    y: 0.999847851876
    z: 0.010749795538
    w: -0.0122592922132
---
header: 
  seq: 5111
  stamp: 
    secs: 1565218996
    nsecs: 961417198
  frame_id: "/stereo/left"
pose: 
  position: 
    x: 0.237029315841
    y: 0.00505570805884
    z: 0.434781380949
  orientation: 
    x: -0.00329079035744
    y: 0.999835415103
    z: 0.0178394647906
    w: 0.000258650542411
---
header: 
  seq: 5112
  stamp: 
    secs: 1565218997
    nsecs: 560571670
  frame_id: "/stereo/left"
pose: 
  position: 
    x: 0.228043536712
    y: 0.0067220968861
    z: 0.422235975427
  orientation: 
    x: -0.0111506653032
    y: 0.999504148162
    z: 0.00479287249086
    w: 0.0290542396727
---
header: 
  seq: 5113
  stamp: 
    secs: 1565218998
    nsecs: 127834796
  frame_id: "/stereo/left"
pose: 
  position: 
    x: 0.236368975637
    y: 0.00433356657854
    z: 0.433799101
  orientation: 
    x: -0.00558447032821
    y: 0.999465982776
    z: 0.0090078040284
    w: -0.0309099083134
---
header: 
  seq: 5114
  stamp: 
    secs: 1565218999
    nsecs: 337612152
  frame_id: "/stereo/left"
pose: 
  position: 
    x: 0.236933594148
    y: 0.00453288797367
    z: 0.43471346769
  orientation: 
    x: -0.00697354170737
    y: 0.999681271781
    z: 0.00979958781944
    w: -0.0221966809545
---
header: 
  seq: 5115
  stamp: 
    secs: 1565218999
    nsecs: 908615112
  frame_id: "/stereo/left"
pose: 
  position: 
    x: 0.222623508547
    y: 0.0087910620438
    z: 0.414198747304
  orientation: 
    x: -0.0137793830936
    y: 0.999690704112
    z: 0.00157817966666
    w: 0.0206430148533
---
header: 
  seq: 5116
  stamp: 
    secs: 1565219000
    nsecs: 501312971
  frame_id: "/stereo/left"
pose: 
  position: 
    x: 0.236435044865
    y: 0.0041949891374
    z: 0.433944805592
  orientation: 
    x: -0.00866024905902
    y: 0.999804149177
    z: 0.00595036828425
    w: -0.0167707034015
---
header: 
  seq: 5117
  stamp: 
    secs: 1565219001
    nsecs: 661993026
  frame_id: "/stereo/left"
pose: 
  position: 
    x: 0.226536497885
    y: 0.00746998227085
    z: 0.419301023035
  orientation: 
    x: -0.0111038206009
    y: 0.999415447747
    z: 0.00386097065401
    w: 0.0321023500324
---
header: 
  seq: 5118
  stamp: 
    secs: 1565219002
    nsecs: 228579282
  frame_id: "/stereo/left"
pose: 
  position: 
    x: 0.236940288594
    y: 0.00502614347959
    z: 0.434498234238
  orientation: 
    x: -0.00467180548778
    y: 0.999890654979
    z: 0.0140303593631
    w: 3.65392803804e-05
---
header: 
  seq: 5119
  stamp: 
    secs: 1565219002
    nsecs: 818748712
  frame_id: "/stereo/left"
pose: 
  position: 
    x: 0.233634825376
    y: 0.0063430265487
    z: 0.429929460217
  orientation: 
    x: -0.00399439998218
    y: 0.999755221578
    z: 0.0166016014627
    w: 0.0140687073248
---
header: 
  seq: 5120
  stamp: 
    secs: 1565219003
    nsecs: 951694488
  frame_id: "/stereo/left"
pose: 
  position: 
    x: 0.237015056942
    y: 0.00505920618641
    z: 0.43467003983
  orientation: 
    x: -0.00287493737247
    y: 0.999833061695
    z: 0.0178784783557
    w: 0.00243792720346
---
header: 
  seq: 5121
  stamp: 
    secs: 1565219004
    nsecs: 559163570
  frame_id: "/stereo/left"
pose: 
  position: 
    x: 0.233699158819
    y: 0.0061890191924
    z: 0.42995882591
  orientation: 
    x: -0.00315632946698
    y: 0.999720618014
    z: 0.0180607469489
    w: 0.0149175373967
---
header: 
  seq: 5122
  stamp: 
    secs: 1565219005
    nsecs: 128438949
  frame_id: "/stereo/left"
pose: 
  position: 
    x: 0.236477735163
    y: 0.00426256073849
    z: 0.433927832577
  orientation: 
    x: -0.00609664799935
    y: 0.999446738356
    z: 0.00707944724486
    w: -0.0319206751224
---
header: 
  seq: 5123
  stamp: 
    secs: 1565219005
    nsecs: 689594745
  frame_id: "/stereo/left"
pose: 
  position: 
    x: 0.236940605632
    y: 0.00454129902887
    z: 0.434580836444
  orientation: 
    x: -0.00442667918967
    y: 0.999604145487
    z: 0.010528153694
    w: -0.0257121530844
---
header: 
  seq: 5124
  stamp: 
    secs: 1565219006
    nsecs: 881538867
  frame_id: "/stereo/left"
pose: 
  position: 
    x: 0.223142104308
    y: 0.00829750688861
    z: 0.415976067884
  orientation: 
    x: -0.0139163146222
    y: 0.999619403299
    z: 0.00256442800308
    w: 0.0236813944897
---
header: 
  seq: 5125
  stamp: 
    secs: 1565219007
    nsecs: 465575695
  frame_id: "/stereo/left"
pose: 
  position: 
    x: 0.236706679688
    y: 0.00410624619492
    z: 0.434327083197
  orientation: 
    x: -0.00901522502661
    y: 0.99971172382
    z: 0.00493973447332
    w: -0.0216977878419
---
header: 
  seq: 5126
  stamp: 
    secs: 1565219008
    nsecs:  67201137
  frame_id: "/stereo/left"
pose: 
  position: 
    x: 0.233373847813
    y: 0.0064059048099
    z: 0.429779205723
  orientation: 
    x: -0.00335682941009
    y: 0.999638827265
    z: 0.0188528042548
    w: 0.018855198036
---
header: 
  seq: 5127
  stamp: 
    secs: 1565219009
    nsecs: 195845127
  frame_id: "/stereo/left"
pose: 
  position: 
    x: 0.237060336761
    y: 0.00497002667927
    z: 0.434774041413
  orientation: 
    x: -0.00341361471076
    y: 0.999843582514
    z: 0.0173166329912
    w: -0.0011366448274
---
header: 
  seq: 5128
  stamp: 
    secs: 1565219009
    nsecs: 793948173
  frame_id: "/stereo/left"
pose: 
  position: 
    x: 0.236946935507
    y: 0.00446398486427
    z: 0.434589869943
  orientation: 
    x: -0.0074450544248
    y: 0.99971849788
    z: 0.00749648693899
    w: -0.0212437954211
---
header: 
  seq: 5129
  stamp: 
    secs: 1565219010
    nsecs: 371812582
  frame_id: "/stereo/left"
pose: 
  position: 
    x: 0.233090452199
    y: 0.00647914025997
    z: 0.429223031011
  orientation: 
    x: -0.00377296278649
    y: 0.999683225597
    z: 0.018122635068
    w: 0.0170523696033
---
header: 
  seq: 5130
  stamp: 
    secs: 1565219010
    nsecs: 937454223
  frame_id: "/stereo/left"
pose: 
  position: 
    x: 0.237045795926
    y: 0.00462781087316
    z: 0.434733832169
  orientation: 
    x: -0.00637181467216
    y: 0.999829571956
    z: 0.00955127987914
    w: -0.0144568347952
---
header: 
  seq: 5131
  stamp: 
    secs: 1565219012
    nsecs:  85954904
  frame_id: "/stereo/left"
pose: 
  position: 
    x: 0.225943065673
    y: 0.00730960543536
    z: 0.419115426359
  orientation: 
    x: -0.010089925349
    y: 0.999409522334
    z: 0.00220526742515
    w: 0.0327709760211
---
header: 
  seq: 5132
  stamp: 
    secs: 1565219012
    nsecs: 670351743
  frame_id: "/stereo/left"
pose: 
  position: 
    x: 0.236823814358
    y: 0.00458805347123
    z: 0.434615821102
  orientation: 
    x: -0.00501293065102
    y: 0.99965854112
    z: 0.0100722619097
    w: -0.0235843429612
---
header: 
  seq: 5133
  stamp: 
    secs: 1565219013
    nsecs: 302387475
  frame_id: "/stereo/left"
pose: 
  position: 
    x: 0.233279970327
    y: 0.00636399522147
    z: 0.42935973373
  orientation: 
    x: -0.00420761723303
    y: 0.999741408725
    z: 0.0163627543555
    w: 0.0152207722301
---
header: 
  seq: 5134
  stamp: 
    secs: 1565219013
    nsecs: 865391969
  frame_id: "/stereo/left"
pose: 
  position: 
    x: 0.232963221591
    y: 0.00651808951135
    z: 0.42883409902
  orientation: 
    x: -0.00365615237905
    y: 0.999675310693
    z: 0.0176912950695
    w: 0.0179700812357
---
header: 
  seq: 5135
  stamp: 
    secs: 1565219015
    nsecs: 102637290
  frame_id: "/stereo/left"
pose: 
  position: 
    x: 0.236696674557
    y: 0.00444137437222
    z: 0.434694638589
  orientation: 
    x: -0.00580486322181
    y: 0.999524686198
    z: 0.00974970475871
    w: -0.0286644117513
---
header: 
  seq: 5136
  stamp: 
    secs: 1565219015
    nsecs: 674518585
  frame_id: "/stereo/left"
pose: 
  position: 
    x: 0.226643522492
    y: 0.00734896560947
    z: 0.41970733342
  orientation: 
    x: -0.0128301972676
    y: 0.999384219856
    z: 0.00109493575533
    w: 0.0326399794179
---
header: 
  seq: 5137
  stamp: 
    secs: 1565219016
    nsecs: 248518705
  frame_id: "/stereo/left"
pose: 
  position: 
    x: 0.236343598586
    y: 0.00403366360433
    z: 0.433954460513
  orientation: 
    x: -0.00986992520361
    y: 0.999702121278
    z: 0.00339821562485
    w: -0.0220614011234
---
header: 
  seq: 5138
  stamp: 
    secs: 1565219016
    nsecs: 858880281
  frame_id: "/stereo/left"
pose: 
  position: 
    x: 0.23695456695
    y: 0.00504046770791
    z: 0.434753851564
  orientation: 
    x: -0.00486256007238
    y: 0.999883025139
    z: 0.0139033274209
    w: 0.00412177561366
---
header: 
  seq: 5139
  stamp: 
    secs: 1565219017
    nsecs: 993761062
  frame_id: "/stereo/left"
pose: 
  position: 
    x: 0.23294078767
    y: 0.00641675921174
    z: 0.428878433631
  orientation: 
    x: -0.00427863713096
    y: 0.999678022709
    z: 0.0172667232553
    w: 0.0180943207682
---
header: 
  seq: 5140
  stamp: 
    secs: 1565219018
    nsecs: 600196361
  frame_id: "/stereo/left"
pose: 
  position: 
    x: 0.236704090162
    y: 0.00437968451846
    z: 0.43463958893
  orientation: 
    x: -0.00636618414896
    y: 0.999509757955
    z: 0.00730466787738
    w: -0.0297717530328
---
header: 
  seq: 5141
  stamp: 
    secs: 1565219019
    nsecs: 165696620
  frame_id: "/stereo/left"
pose: 
  position: 
    x: 0.236695940955
    y: 0.00442130262425
    z: 0.43428313168
  orientation: 
    x: -0.00403525543289
    y: 0.999631365505
    z: 0.0110296804503
    w: -0.0244784795371
---
