header: 
  seq: 2539
  stamp: 
    secs: 1565217015
    nsecs: 980379343
  frame_id: "/stereo/left"
pose: 
  position: 
    x: 0.189991991154
    y: -0.0173557735172
    z: 0.577849396723
  orientation: 
    x: -0.0022641856839
    y: 0.999927254868
    z: 0.00853625351981
    w: 0.0082152791127
---
header: 
  seq: 2540
  stamp: 
    secs: 1565217016
    nsecs: 611330270
  frame_id: "/stereo/left"
pose: 
  position: 
    x: 0.189497199772
    y: -0.017355520376
    z: 0.576580037947
  orientation: 
    x: -0.00196293926611
    y: 0.999914061091
    z: 0.00758378719121
    w: 0.0105120632452
---
header: 
  seq: 2541
  stamp: 
    secs: 1565217017
    nsecs: 795888185
  frame_id: "/stereo/left"
pose: 
  position: 
    x: 0.189611737377
    y: -0.0173602123596
    z: 0.576919196515
  orientation: 
    x: -0.00239834198354
    y: 0.999928995683
    z: 0.00721014445229
    w: 0.00917961683417
---
header: 
  seq: 2542
  stamp: 
    secs: 1565217018
    nsecs: 393348217
  frame_id: "/stereo/left"
pose: 
  position: 
    x: 0.18971645261
    y: -0.0173399269053
    z: 0.577259631746
  orientation: 
    x: -0.00218122146813
    y: 0.999955430953
    z: 0.00705421204018
    w: 0.00588357656602
---
header: 
  seq: 2543
  stamp: 
    secs: 1565217019
    nsecs:  14972209
  frame_id: "/stereo/left"
pose: 
  position: 
    x: 0.189620506483
    y: -0.0172629425104
    z: 0.577938642598
  orientation: 
    x: -0.00214372268311
    y: 0.999922382442
    z: 0.0077264791264
    w: 0.0095359878513
---
header: 
  seq: 2544
  stamp: 
    secs: 1565217019
    nsecs: 588405847
  frame_id: "/stereo/left"
pose: 
  position: 
    x: 0.189160825524
    y: -0.0173591797187
    z: 0.575813309005
  orientation: 
    x: -0.00313635526197
    y: 0.999917746833
    z: 0.00640767025653
    w: 0.010658546163
---
header: 
  seq: 2545
  stamp: 
    secs: 1565217020
    nsecs: 790759801
  frame_id: "/stereo/left"
pose: 
  position: 
    x: 0.190154049704
    y: -0.0173262343295
    z: 0.578056823345
  orientation: 
    x: -0.00286434985765
    y: 0.999944791252
    z: 0.0083862814199
    w: 0.00564625812763
---
header: 
  seq: 2546
  stamp: 
    secs: 1565217021
    nsecs: 357823133
  frame_id: "/stereo/left"
pose: 
  position: 
    x: 0.190423285783
    y: -0.0173487402399
    z: 0.579046888716
  orientation: 
    x: -0.000860367107597
    y: 0.999898188429
    z: 0.0110022401685
    w: 0.00904562077286
---
header: 
  seq: 2547
  stamp: 
    secs: 1565217021
    nsecs: 941267013
  frame_id: "/stereo/left"
pose: 
  position: 
    x: 0.189546124337
    y: -0.0172276521383
    z: 0.576695777772
  orientation: 
    x: -0.00305831510246
    y: 0.999943096909
    z: 0.00575594186212
    w: 0.00844504502546
---
header: 
  seq: 2548
  stamp: 
    secs: 1565217022
    nsecs: 546911954
  frame_id: "/stereo/left"
pose: 
  position: 
    x: 0.189067611191
    y: -0.0171448138556
    z: 0.575878000307
  orientation: 
    x: -0.00391861882311
    y: 0.999895632087
    z: 0.00269756367767
    w: 0.0136415728331
---
header: 
  seq: 2549
  stamp: 
    secs: 1565217023
    nsecs: 693719387
  frame_id: "/stereo/left"
pose: 
  position: 
    x: 0.189909835791
    y: -0.017308505983
    z: 0.577512302211
  orientation: 
    x: -0.0023115719606
    y: 0.999932562657
    z: 0.00800701486458
    w: 0.00808792222354
---
header: 
  seq: 2550
  stamp: 
    secs: 1565217024
    nsecs: 336685895
  frame_id: "/stereo/left"
pose: 
  position: 
    x: 0.189530575028
    y: -0.0172082468231
    z: 0.576779517147
  orientation: 
    x: -0.00268385906045
    y: 0.999957434052
    z: 0.00496397325867
    w: 0.00729972283329
---
header: 
  seq: 2551
  stamp: 
    secs: 1565217024
    nsecs: 906029224
  frame_id: "/stereo/left"
pose: 
  position: 
    x: 0.189559590689
    y: -0.0171971746508
    z: 0.576688811831
  orientation: 
    x: -0.00315285204709
    y: 0.999957717013
    z: 0.0052882874732
    w: 0.00683064600969
---
header: 
  seq: 2552
  stamp: 
    secs: 1565217025
    nsecs: 483066797
  frame_id: "/stereo/left"
pose: 
  position: 
    x: 0.188861898689
    y: -0.0172599428535
    z: 0.575067872699
  orientation: 
    x: -0.0038920388272
    y: 0.999914503028
    z: 0.0042125203828
    w: 0.0117513122757
---
header: 
  seq: 2553
  stamp: 
    secs: 1565217026
    nsecs: 659804344
  frame_id: "/stereo/left"
pose: 
  position: 
    x: 0.190500064281
    y: -0.0172485973893
    z: 0.578783646594
  orientation: 
    x: -0.00213854045589
    y: 0.999956230496
    z: 0.00846557631992
    w: 0.00336121335991
---
header: 
  seq: 2554
  stamp: 
    secs: 1565217027
    nsecs: 222089052
  frame_id: "/stereo/left"
pose: 
  position: 
    x: 0.189477367185
    y: -0.0171612163092
    z: 0.576250070496
  orientation: 
    x: -0.00284064213763
    y: 0.999954241529
    z: 0.00714952691561
    w: 0.00568593582793
---
header: 
  seq: 2555
  stamp: 
    secs: 1565217027
    nsecs: 819642782
  frame_id: "/stereo/left"
pose: 
  position: 
    x: 0.189076533304
    y: -0.0171013626531
    z: 0.575905555516
  orientation: 
    x: -0.00367236860078
    y: 0.99992943118
    z: 0.00329844994319
    w: 0.0108058594008
---
header: 
  seq: 2556
  stamp: 
    secs: 1565217028
    nsecs: 962763309
  frame_id: "/stereo/left"
pose: 
  position: 
    x: 0.190214581001
    y: -0.0172919021721
    z: 0.578437969258
  orientation: 
    x: -0.00176453088609
    y: 0.999932150308
    z: 0.0103676034317
    w: 0.00500939228034
---
header: 
  seq: 2557
  stamp: 
    secs: 1565217029
    nsecs: 593875169
  frame_id: "/stereo/left"
pose: 
  position: 
    x: 0.189167177051
    y: -0.0172340120894
    z: 0.575838908625
  orientation: 
    x: -0.00372382231378
    y: 0.999946651279
    z: 0.00569799919543
    w: 0.00776920518651
---
header: 
  seq: 2558
  stamp: 
    secs: 1565217030
    nsecs: 175479173
  frame_id: "/stereo/left"
pose: 
  position: 
    x: 0.18905272425
    y: -0.0172774558834
    z: 0.575692234011
  orientation: 
    x: -0.00306500610351
    y: 0.99993870587
    z: 0.00538431073336
    w: 0.00917602517827
---
header: 
  seq: 2559
  stamp: 
    secs: 1565217030
    nsecs: 759596109
  frame_id: "/stereo/left"
pose: 
  position: 
    x: 0.189531657931
    y: -0.0172929223118
    z: 0.576517073524
  orientation: 
    x: -0.00260273592622
    y: 0.999940892377
    z: 0.00671589755881
    w: 0.00814458338155
---
header: 
  seq: 2560
  stamp: 
    secs: 1565217031
    nsecs: 921041488
  frame_id: "/stereo/left"
pose: 
  position: 
    x: 0.190164027792
    y: -0.0170104993117
    z: 0.578503885743
  orientation: 
    x: -0.00433372681559
    y: 0.999966398222
    z: 0.00511941290547
    w: 0.00471305113416
---
header: 
  seq: 2561
  stamp: 
    secs: 1565217032
    nsecs: 486641883
  frame_id: "/stereo/left"
pose: 
  position: 
    x: 0.189766034366
    y: -0.0162144406525
    z: 0.578914377976
  orientation: 
    x: -0.00674768939327
    y: 0.999935430439
    z: -0.00755349379037
    w: 0.00515251119932
---
header: 
  seq: 2562
  stamp: 
    secs: 1565217033
    nsecs: 139340400
  frame_id: "/stereo/left"
pose: 
  position: 
    x: 0.189773813276
    y: -0.0171686601682
    z: 0.578102693408
  orientation: 
    x: -0.00307767381356
    y: 0.999943813374
    z: 0.00280793709118
    w: 0.0097474872463
---
header: 
  seq: 2563
  stamp: 
    secs: 1565217033
    nsecs: 712324380
  frame_id: "/stereo/left"
pose: 
  position: 
    x: 0.18967399393
    y: -0.0167311173062
    z: 0.577678756997
  orientation: 
    x: -0.00466660595652
    y: 0.999893131557
    z: -8.50044975784e-05
    w: 0.0138542783233
---
header: 
  seq: 2564
  stamp: 
    secs: 1565217034
    nsecs: 910867452
  frame_id: "/stereo/left"
pose: 
  position: 
    x: 0.189302015262
    y: -0.0171110773906
    z: 0.576676206136
  orientation: 
    x: -0.00357032576839
    y: 0.999943287598
    z: 0.00405252509016
    w: 0.0091788562792
---
header: 
  seq: 2565
  stamp: 
    secs: 1565217035
    nsecs: 486226320
  frame_id: "/stereo/left"
pose: 
  position: 
    x: 0.189143229827
    y: -0.0172146693445
    z: 0.576081604103
  orientation: 
    x: -0.00356093063261
    y: 0.99994465461
    z: 0.00330960151599
    w: 0.00933027478827
---
header: 
  seq: 2566
  stamp: 
    secs: 1565217036
    nsecs:  67327499
  frame_id: "/stereo/left"
pose: 
  position: 
    x: 0.190308688859
    y: -0.0173846600259
    z: 0.578587394156
  orientation: 
    x: -0.00121168599155
    y: 0.999901829758
    z: 0.0121862463959
    w: 0.00680867551027
---
header: 
  seq: 2567
  stamp: 
    secs: 1565217036
    nsecs: 709287643
  frame_id: "/stereo/left"
pose: 
  position: 
    x: 0.189849961841
    y: -0.0172406307494
    z: 0.577530095624
  orientation: 
    x: -0.00192218243562
    y: 0.999935136399
    z: 0.0079075524719
    w: 0.0079686149237
---
header: 
  seq: 2568
  stamp: 
    secs: 1565217037
    nsecs: 851122617
  frame_id: "/stereo/left"
pose: 
  position: 
    x: 0.188746411958
    y: -0.0169517168074
    z: 0.574894155419
  orientation: 
    x: -0.00390436920274
    y: 0.999874988391
    z: 0.00437414268066
    w: 0.0146843579012
---
header: 
  seq: 2569
  stamp: 
    secs: 1565217038
    nsecs: 450779199
  frame_id: "/stereo/left"
pose: 
  position: 
    x: 0.189779192549
    y: -0.017370000284
    z: 0.577352600608
  orientation: 
    x: -0.00214955693314
    y: 0.999938570772
    z: 0.00824036910806
    w: 0.00709439248756
---
header: 
  seq: 2570
  stamp: 
    secs: 1565217039
    nsecs:  18275976
  frame_id: "/stereo/left"
pose: 
  position: 
    x: 0.18980855758
    y: -0.0172519577327
    z: 0.577343049671
  orientation: 
    x: -0.00212790275481
    y: 0.999936719358
    z: 0.00692590997802
    w: 0.00860587471465
---
header: 
  seq: 2571
  stamp: 
    secs: 1565217039
    nsecs: 583231925
  frame_id: "/stereo/left"
pose: 
  position: 
    x: 0.189677526258
    y: -0.0172857294315
    z: 0.577088622897
  orientation: 
    x: -0.00276730505488
    y: 0.999926752829
    z: 0.00610154036016
    w: 0.0100797918664
---
header: 
  seq: 2572
  stamp: 
    secs: 1565217040
    nsecs: 763725042
  frame_id: "/stereo/left"
pose: 
  position: 
    x: 0.189960275971
    y: -0.017285918567
    z: 0.577865181096
  orientation: 
    x: -0.00173214384511
    y: 0.999932015213
    z: 0.00913521141372
    w: 0.00703651488863
---
header: 
  seq: 2573
  stamp: 
    secs: 1565217041
    nsecs: 334537744
  frame_id: "/stereo/left"
pose: 
  position: 
    x: 0.189481681466
    y: -0.0172626130415
    z: 0.576487266896
  orientation: 
    x: -0.00264798434336
    y: 0.999931945286
    z: 0.0064735137281
    w: 0.00933737626911
---
header: 
  seq: 2574
  stamp: 
    secs: 1565217041
    nsecs: 968939065
  frame_id: "/stereo/left"
pose: 
  position: 
    x: 0.189102465889
    y: -0.0171982614455
    z: 0.576120258128
  orientation: 
    x: -0.00328144023287
    y: 0.99992915049
    z: 0.00301862482795
    w: 0.011036940408
---
header: 
  seq: 2575
  stamp: 
    secs: 1565217042
    nsecs: 543202400
  frame_id: "/stereo/left"
pose: 
  position: 
    x: 0.188981207112
    y: -0.0171904463562
    z: 0.575671876737
  orientation: 
    x: -0.00329393363649
    y: 0.999909311022
    z: 0.00394147255775
    w: 0.0124492781694
---
header: 
  seq: 2576
  stamp: 
    secs: 1565217043
    nsecs: 720207929
  frame_id: "/stereo/left"
pose: 
  position: 
    x: 0.189524179014
    y: -0.0172481204304
    z: 0.576491868512
  orientation: 
    x: -0.00261126939505
    y: 0.999937575476
    z: 0.006137052777
    w: 0.00896454162444
---
header: 
  seq: 2577
  stamp: 
    secs: 1565217044
    nsecs: 287754058
  frame_id: "/stereo/left"
pose: 
  position: 
    x: 0.189442854256
    y: -0.0172767559801
    z: 0.576248263467
  orientation: 
    x: -0.00243934336606
    y: 0.999939114854
    z: 0.00735217145477
    w: 0.00785886531275
---
header: 
  seq: 2578
  stamp: 
    secs: 1565217044
    nsecs: 851747274
  frame_id: "/stereo/left"
pose: 
  position: 
    x: 0.188761697562
    y: -0.0169231861766
    z: 0.575123649876
  orientation: 
    x: -0.00397658766489
    y: 0.999855427922
    z: 0.00540363869607
    w: 0.0156240422074
---
