header: 
  seq: 3321
  stamp: 
    secs: 1565217600
    nsecs: 713591575
  frame_id: "/stereo/left"
pose: 
  position: 
    x: 0.186075127395
    y: -0.00886730840467
    z: 0.523978702796
  orientation: 
    x: -0.000596783375478
    y: 0.998989914543
    z: 0.00353757241825
    w: 0.0447915178606
---
header: 
  seq: 3322
  stamp: 
    secs: 1565217601
    nsecs: 345978736
  frame_id: "/stereo/left"
pose: 
  position: 
    x: 0.186102658606
    y: -0.0088726096909
    z: 0.524063006514
  orientation: 
    x: -0.00101964246213
    y: 0.998970832345
    z: 0.00373917560425
    w: 0.0451913157577
---
header: 
  seq: 3323
  stamp: 
    secs: 1565217601
    nsecs: 934763908
  frame_id: "/stereo/left"
pose: 
  position: 
    x: 0.186457914353
    y: -0.00895433088503
    z: 0.524783095679
  orientation: 
    x: 0.00093412130328
    y: 0.998806321699
    z: 0.0067766725593
    w: 0.0483646137262
---
header: 
  seq: 3324
  stamp: 
    secs: 1565217602
    nsecs: 575976371
  frame_id: "/stereo/left"
pose: 
  position: 
    x: 0.187446928608
    y: -0.00937871982354
    z: 0.527530504406
  orientation: 
    x: 0.000837437959561
    y: 0.999222189971
    z: 0.00619795295843
    w: 0.0389345495268
---
header: 
  seq: 3325
  stamp: 
    secs: 1565217603
    nsecs: 143671751
  frame_id: "/stereo/left"
pose: 
  position: 
    x: 0.186006080255
    y: -0.00896922355707
    z: 0.523883450409
  orientation: 
    x: -0.00062206264722
    y: 0.998967132016
    z: 0.00515269197247
    w: 0.0451412445017
---
header: 
  seq: 3326
  stamp: 
    secs: 1565217604
    nsecs: 330178260
  frame_id: "/stereo/left"
pose: 
  position: 
    x: 0.187706561295
    y: -0.00937313815177
    z: 0.527927452347
  orientation: 
    x: -0.000213532295596
    y: 0.999311816155
    z: 0.00514075314694
    w: 0.036734468196
---
header: 
  seq: 3327
  stamp: 
    secs: 1565217604
    nsecs: 897496700
  frame_id: "/stereo/left"
pose: 
  position: 
    x: 0.186740863488
    y: -0.00921919786962
    z: 0.525942188291
  orientation: 
    x: -0.000402126922392
    y: 0.999158888243
    z: 0.00475493485669
    w: 0.0407276924761
---
header: 
  seq: 3328
  stamp: 
    secs: 1565217605
    nsecs: 459213495
  frame_id: "/stereo/left"
pose: 
  position: 
    x: 0.186071225299
    y: -0.008880045776
    z: 0.524287950533
  orientation: 
    x: -0.00127762331363
    y: 0.999040271533
    z: 0.00179366359515
    w: 0.0437457004262
---
header: 
  seq: 3329
  stamp: 
    secs: 1565217606
    nsecs: 627451658
  frame_id: "/stereo/left"
pose: 
  position: 
    x: 0.18663658148
    y: -0.00924322595837
    z: 0.525662529189
  orientation: 
    x: 0.000440916296538
    y: 0.999090096587
    z: 0.00641298451165
    w: 0.0421622831898
---
header: 
  seq: 3330
  stamp: 
    secs: 1565217607
    nsecs: 186925411
  frame_id: "/stereo/left"
pose: 
  position: 
    x: 0.186188434898
    y: -0.00892514282816
    z: 0.524398413445
  orientation: 
    x: -0.000369373224617
    y: 0.999016613365
    z: 0.00469430223205
    w: 0.0440866568333
---
header: 
  seq: 3331
  stamp: 
    secs: 1565217607
    nsecs: 779923439
  frame_id: "/stereo/left"
pose: 
  position: 
    x: 0.187330383164
    y: -0.00933405640411
    z: 0.527370232234
  orientation: 
    x: 0.000590491623373
    y: 0.999218126628
    z: 0.0049700972493
    w: 0.0392184251528
---
header: 
  seq: 3332
  stamp: 
    secs: 1565217608
    nsecs: 916960239
  frame_id: "/stereo/left"
pose: 
  position: 
    x: 0.186202350116
    y: -0.0088798414759
    z: 0.524500799629
  orientation: 
    x: -0.000882627837502
    y: 0.998977333667
    z: 0.00372366813443
    w: 0.0450515491706
---
header: 
  seq: 3333
  stamp: 
    secs: 1565217609
    nsecs: 560037851
  frame_id: "/stereo/left"
pose: 
  position: 
    x: 0.18733124245
    y: -0.00937873196745
    z: 0.527246977847
  orientation: 
    x: 0.000962156601335
    y: 0.999249624766
    z: 0.00702714391215
    w: 0.0380773017371
---
header: 
  seq: 3334
  stamp: 
    secs: 1565217610
    nsecs: 136316061
  frame_id: "/stereo/left"
pose: 
  position: 
    x: 0.185997086975
    y: -0.00893702491123
    z: 0.523818130522
  orientation: 
    x: -0.000607091450627
    y: 0.999013519976
    z: 0.00347582216889
    w: 0.0442666579362
---
header: 
  seq: 3335
  stamp: 
    secs: 1565217610
    nsecs: 699964046
  frame_id: "/stereo/left"
pose: 
  position: 
    x: 0.187242500965
    y: -0.00933163353159
    z: 0.527098437303
  orientation: 
    x: 0.000729650164076
    y: 0.99926758724
    z: 0.00545252639799
    w: 0.0378685444386
---
header: 
  seq: 3336
  stamp: 
    secs: 1565217611
    nsecs: 868064165
  frame_id: "/stereo/left"
pose: 
  position: 
    x: 0.186112328987
    y: -0.00893734351554
    z: 0.524162618655
  orientation: 
    x: -0.000787564157051
    y: 0.999004987564
    z: 0.00342200807276
    w: 0.0444601442381
---
header: 
  seq: 3337
  stamp: 
    secs: 1565217612
    nsecs: 452320814
  frame_id: "/stereo/left"
pose: 
  position: 
    x: 0.188047248602
    y: -0.00935579561422
    z: 0.528673365237
  orientation: 
    x: 0.00124582561777
    y: 0.999257882581
    z: 0.00747109615635
    w: 0.0377665823258
---
header: 
  seq: 3338
  stamp: 
    secs: 1565217613
    nsecs:  89595079
  frame_id: "/stereo/left"
pose: 
  position: 
    x: 0.187872334816
    y: -0.00935060392594
    z: 0.528391314377
  orientation: 
    x: 0.00123342977161
    y: 0.999243443623
    z: 0.00716550440678
    w: 0.0382056877275
---
header: 
  seq: 3339
  stamp: 
    secs: 1565217613
    nsecs: 652643442
  frame_id: "/stereo/left"
pose: 
  position: 
    x: 0.18785261869
    y: -0.00932619356255
    z: 0.528507830181
  orientation: 
    x: 0.00130171842276
    y: 0.999200662046
    z: 0.00735233112472
    w: 0.0392719457531
---
header: 
  seq: 3340
  stamp: 
    secs: 1565217614
    nsecs: 842920064
  frame_id: "/stereo/left"
pose: 
  position: 
    x: 0.187164804628
    y: -0.00938218755274
    z: 0.526787325962
  orientation: 
    x: 0.000650207952941
    y: 0.999165079571
    z: 0.0059693729939
    w: 0.0404114783514
---
header: 
  seq: 3341
  stamp: 
    secs: 1565217615
    nsecs: 413245439
  frame_id: "/stereo/left"
pose: 
  position: 
    x: 0.187185770961
    y: -0.00927896243048
    z: 0.526880362759
  orientation: 
    x: 0.000504212717318
    y: 0.999140735195
    z: 0.00570764052177
    w: 0.041048262861
---
header: 
  seq: 3342
  stamp: 
    secs: 1565217615
    nsecs: 985344171
  frame_id: "/stereo/left"
pose: 
  position: 
    x: 0.186261226947
    y: -0.00888064138898
    z: 0.524488184087
  orientation: 
    x: -0.000715378931054
    y: 0.998964588265
    z: 0.00416748772222
    w: 0.0452975901364
---
header: 
  seq: 3343
  stamp: 
    secs: 1565217616
    nsecs: 634736776
  frame_id: "/stereo/left"
pose: 
  position: 
    x: 0.187620110353
    y: -0.00934694688344
    z: 0.528006790044
  orientation: 
    x: 0.000791183565345
    y: 0.999218786591
    z: 0.00565938136114
    w: 0.0391045004533
---
header: 
  seq: 3344
  stamp: 
    secs: 1565217617
    nsecs: 790849447
  frame_id: "/stereo/left"
pose: 
  position: 
    x: 0.186790714962
    y: -0.00918453402658
    z: 0.526061436811
  orientation: 
    x: -0.000343362121003
    y: 0.99907170972
    z: 0.00523905432777
    w: 0.0427569087858
---
header: 
  seq: 3345
  stamp: 
    secs: 1565217618
    nsecs: 389723539
  frame_id: "/stereo/left"
pose: 
  position: 
    x: 0.186146229832
    y: -0.00889603357483
    z: 0.524248361804
  orientation: 
    x: -0.000832753448804
    y: 0.999010513608
    z: 0.00370688176288
    w: 0.0443120666407
---
header: 
  seq: 3346
  stamp: 
    secs: 1565217618
    nsecs: 962114095
  frame_id: "/stereo/left"
pose: 
  position: 
    x: 0.187385916696
    y: -0.00936756850807
    z: 0.527276266225
  orientation: 
    x: 0.00063865911227
    y: 0.999273634866
    z: 0.0063432290885
    w: 0.0375707096263
---
header: 
  seq: 3347
  stamp: 
    secs: 1565217619
    nsecs: 532487392
  frame_id: "/stereo/left"
pose: 
  position: 
    x: 0.187240684518
    y: -0.00932184637589
    z: 0.527004735255
  orientation: 
    x: 0.000931011211075
    y: 0.999195846642
    z: 0.00631579416636
    w: 0.0395841384425
---
header: 
  seq: 3348
  stamp: 
    secs: 1565217620
    nsecs: 751819849
  frame_id: "/stereo/left"
pose: 
  position: 
    x: 0.186136103546
    y: -0.00895300199719
    z: 0.524280681165
  orientation: 
    x: -0.000563923083201
    y: 0.9989879002
    z: 0.0060226290355
    w: 0.0445711249953
---
header: 
  seq: 3349
  stamp: 
    secs: 1565217621
    nsecs: 327465772
  frame_id: "/stereo/left"
pose: 
  position: 
    x: 0.187867732775
    y: -0.0094702657174
    z: 0.528511958966
  orientation: 
    x: 0.00172814948963
    y: 0.999322649652
    z: 0.00841714353197
    w: 0.0357827764048
---
header: 
  seq: 3350
  stamp: 
    secs: 1565217621
    nsecs: 984751224
  frame_id: "/stereo/left"
pose: 
  position: 
    x: 0.186664814743
    y: -0.00930256034941
    z: 0.525662806801
  orientation: 
    x: 0.000477016902814
    y: 0.999200309937
    z: 0.00714807651602
    w: 0.039337235278
---
header: 
  seq: 3351
  stamp: 
    secs: 1565217622
    nsecs: 558461904
  frame_id: "/stereo/left"
pose: 
  position: 
    x: 0.187584487082
    y: -0.00943054441494
    z: 0.527807845572
  orientation: 
    x: 0.00161646150271
    y: 0.999325449331
    z: 0.0078136162379
    w: 0.0358466284644
---
header: 
  seq: 3352
  stamp: 
    secs: 1565217623
    nsecs: 747214555
  frame_id: "/stereo/left"
pose: 
  position: 
    x: 0.187590974445
    y: -0.00945648068035
    z: 0.527828541124
  orientation: 
    x: 0.00145356992326
    y: 0.999339178778
    z: 0.00805536882894
    w: 0.0354147416533
---
header: 
  seq: 3353
  stamp: 
    secs: 1565217624
    nsecs: 323843955
  frame_id: "/stereo/left"
pose: 
  position: 
    x: 0.18706593357
    y: -0.00930819294267
    z: 0.526692647372
  orientation: 
    x: 0.0011833762539
    y: 0.999308050718
    z: 0.00787804009701
    w: 0.0363311969895
---
header: 
  seq: 3354
  stamp: 
    secs: 1565217624
    nsecs: 888489007
  frame_id: "/stereo/left"
pose: 
  position: 
    x: 0.187170004564
    y: -0.00933366377595
    z: 0.526837742903
  orientation: 
    x: 0.000829080160829
    y: 0.999267108629
    z: 0.00683445580222
    w: 0.0376543284687
---
header: 
  seq: 3355
  stamp: 
    secs: 1565217626
    nsecs:  40577888
  frame_id: "/stereo/left"
pose: 
  position: 
    x: 0.186410060706
    y: -0.00905264525292
    z: 0.524660732791
  orientation: 
    x: 0.000826020127159
    y: 0.998950070255
    z: 0.00791343492992
    w: 0.0451159880205
---
header: 
  seq: 3356
  stamp: 
    secs: 1565217626
    nsecs: 613139867
  frame_id: "/stereo/left"
pose: 
  position: 
    x: 0.187475040996
    y: -0.00941153833055
    z: 0.527581972519
  orientation: 
    x: 0.000832922869529
    y: 0.999273017014
    z: 0.00665780668923
    w: 0.037528886434
---
header: 
  seq: 3357
  stamp: 
    secs: 1565217627
    nsecs: 203969478
  frame_id: "/stereo/left"
pose: 
  position: 
    x: 0.186014479096
    y: -0.00897262790104
    z: 0.523929990755
  orientation: 
    x: -0.000491164039146
    y: 0.998982050216
    z: 0.00587179808185
    w: 0.0447229705189
---
header: 
  seq: 3358
  stamp: 
    secs: 1565217627
    nsecs: 764772891
  frame_id: "/stereo/left"
pose: 
  position: 
    x: 0.186057124764
    y: -0.00886215561009
    z: 0.524121389475
  orientation: 
    x: -0.000810733850746
    y: 0.998989062317
    z: 0.00352774523757
    w: 0.0448079356192
---
header: 
  seq: 3359
  stamp: 
    secs: 1565217628
    nsecs: 932966232
  frame_id: "/stereo/left"
pose: 
  position: 
    x: 0.186012397889
    y: -0.0089830238512
    z: 0.523999043457
  orientation: 
    x: -0.000512056388749
    y: 0.998955303543
    z: 0.00473641690737
    w: 0.0454489348327
---
header: 
  seq: 3360
  stamp: 
    secs: 1565217629
    nsecs: 519697904
  frame_id: "/stereo/left"
pose: 
  position: 
    x: 0.186034402039
    y: -0.00907623271697
    z: 0.524048991318
  orientation: 
    x: -9.09516045816e-05
    y: 0.999001397898
    z: 0.00524556324321
    w: 0.0443698410094
---
