header: 
  seq: 5365
  stamp: 
    secs: 1565219203
    nsecs: 613325119
  frame_id: "/stereo/left"
pose: 
  position: 
    x: -0.0621657695069
    y: -0.000664686017235
    z: 0.544201259177
  orientation: 
    x: -0.0132230029992
    y: -0.99827129949
    z: -0.0572674635036
    w: -4.93028132679e-05
---
header: 
  seq: 5366
  stamp: 
    secs: 1565219204
    nsecs: 252192258
  frame_id: "/stereo/left"
pose: 
  position: 
    x: -0.0619083954539
    y: -0.000707877122507
    z: 0.543081684904
  orientation: 
    x: -0.0129560977128
    y: -0.998269364343
    z: -0.0573442130022
    w: 0.00143421820846
---
header: 
  seq: 5367
  stamp: 
    secs: 1565219204
    nsecs: 817544460
  frame_id: "/stereo/left"
pose: 
  position: 
    x: -0.0620807432802
    y: -0.000792429968553
    z: 0.543422370261
  orientation: 
    x: -0.0133097949668
    y: -0.998335029961
    z: -0.0560984413271
    w: -0.0017269024619
---
header: 
  seq: 5368
  stamp: 
    secs: 1565219205
    nsecs: 416389226
  frame_id: "/stereo/left"
pose: 
  position: 
    x: -0.0619282091035
    y: -0.000765223428812
    z: 0.542673037262
  orientation: 
    x: -0.0129404783343
    y: -0.998355814217
    z: -0.0558255529324
    w: 0.00131144187522
---
header: 
  seq: 5369
  stamp: 
    secs: 1565219206
    nsecs: 628418207
  frame_id: "/stereo/left"
pose: 
  position: 
    x: -0.0618114185371
    y: -0.000822166790832
    z: 0.541972524699
  orientation: 
    x: -0.0126141244231
    y: -0.998330205299
    z: -0.0563448206371
    w: 0.00171646167699
---
header: 
  seq: 5370
  stamp: 
    secs: 1565219207
    nsecs: 198024988
  frame_id: "/stereo/left"
pose: 
  position: 
    x: -0.0617502002569
    y: -0.000836788532889
    z: 0.541850939206
  orientation: 
    x: -0.0126668702478
    y: -0.998319340097
    z: -0.0565164208293
    w: 0.00198488360036
---
header: 
  seq: 5371
  stamp: 
    secs: 1565219207
    nsecs: 834446668
  frame_id: "/stereo/left"
pose: 
  position: 
    x: -0.0617655078044
    y: -0.000860399437179
    z: 0.541609755427
  orientation: 
    x: -0.0129168305631
    y: -0.998336830688
    z: -0.0561811700598
    w: 0.000635696966622
---
header: 
  seq: 5372
  stamp: 
    secs: 1565219208
    nsecs: 418645620
  frame_id: "/stereo/left"
pose: 
  position: 
    x: -0.061689895175
    y: -0.000892595637731
    z: 0.5408255732
  orientation: 
    x: -0.0127699093887
    y: -0.998320687363
    z: -0.0564749420532
    w: 0.00182085607954
---
header: 
  seq: 5373
  stamp: 
    secs: 1565219209
    nsecs: 589830636
  frame_id: "/stereo/left"
pose: 
  position: 
    x: -0.0618101437556
    y: -0.000866962593532
    z: 0.542017036723
  orientation: 
    x: -0.012371572851
    y: -0.99839691884
    z: -0.0551890030262
    w: 0.0021703871765
---
header: 
  seq: 5374
  stamp: 
    secs: 1565219210
    nsecs: 163117408
  frame_id: "/stereo/left"
pose: 
  position: 
    x: -0.0619472464815
    y: -0.00087032615936
    z: 0.542575814336
  orientation: 
    x: -0.013403565593
    y: -0.998445337899
    z: -0.0540991603214
    w: -0.000729732395178
---
header: 
  seq: 5375
  stamp: 
    secs: 1565219210
    nsecs: 720233201
  frame_id: "/stereo/left"
pose: 
  position: 
    x: -0.0620157832977
    y: -0.000750915965804
    z: 0.543430714578
  orientation: 
    x: -0.0122017827091
    y: -0.99822874355
    z: -0.0582233109973
    w: 0.000733556972908
---
header: 
  seq: 5376
  stamp: 
    secs: 1565219211
    nsecs: 881727218
  frame_id: "/stereo/left"
pose: 
  position: 
    x: -0.0620380688054
    y: -0.000756844599233
    z: 0.543063471562
  orientation: 
    x: -0.0134981287745
    y: -0.998270195122
    z: -0.0571999903907
    w: -0.0016059732876
---
header: 
  seq: 5377
  stamp: 
    secs: 1565219212
    nsecs: 448737621
  frame_id: "/stereo/left"
pose: 
  position: 
    x: -0.0616886768417
    y: -0.000805048799084
    z: 0.541583017345
  orientation: 
    x: -0.0128916563884
    y: -0.998212505434
    z: -0.0583564190446
    w: 0.000357137502568
---
header: 
  seq: 5378
  stamp: 
    secs: 1565219213
    nsecs:  86962461
  frame_id: "/stereo/left"
pose: 
  position: 
    x: -0.06181421387
    y: -0.000831606257028
    z: 0.541975438237
  orientation: 
    x: -0.0129846989315
    y: -0.998174308416
    z: -0.0589868348019
    w: 3.05388817929e-05
---
header: 
  seq: 5379
  stamp: 
    secs: 1565219213
    nsecs: 658383846
  frame_id: "/stereo/left"
pose: 
  position: 
    x: -0.0616933266023
    y: -0.000825496956448
    z: 0.541387464787
  orientation: 
    x: -0.0128592936468
    y: -0.998304770488
    z: -0.0566056045925
    w: 0.00424609427761
---
header: 
  seq: 5380
  stamp: 
    secs: 1565219214
    nsecs: 847916364
  frame_id: "/stereo/left"
pose: 
  position: 
    x: -0.0625362579959
    y: -0.000507411727912
    z: 0.546732060559
  orientation: 
    x: -0.0139860634958
    y: -0.998335782934
    z: -0.0558662722385
    w: 0.00300236032426
---
header: 
  seq: 5381
  stamp: 
    secs: 1565219215
    nsecs: 430514335
  frame_id: "/stereo/left"
pose: 
  position: 
    x: -0.0622322112054
    y: -0.000663410967794
    z: 0.544703626231
  orientation: 
    x: -0.0134245520776
    y: -0.998230652409
    z: -0.0579251809835
    w: -0.00013928819182
---
header: 
  seq: 5382
  stamp: 
    secs: 1565219216
    nsecs:   8298397
  frame_id: "/stereo/left"
pose: 
  position: 
    x: -0.0618604220063
    y: -0.000741191351336
    z: 0.542678277104
  orientation: 
    x: -0.0127655246543
    y: -0.998303381239
    z: -0.0567352200467
    w: 0.00291808031863
---
header: 
  seq: 5383
  stamp: 
    secs: 1565219216
    nsecs: 637972593
  frame_id: "/stereo/left"
pose: 
  position: 
    x: -0.0620469399525
    y: -0.000721365161104
    z: 0.543481005697
  orientation: 
    x: -0.0132775496587
    y: -0.998307298911
    z: -0.0565865633925
    w: -0.00205047764243
---
header: 
  seq: 5384
  stamp: 
    secs: 1565219217
    nsecs: 793047189
  frame_id: "/stereo/left"
pose: 
  position: 
    x: -0.0619346302399
    y: -0.000741993137422
    z: 0.54264099058
  orientation: 
    x: -0.0126672961056
    y: -0.998294118619
    z: -0.056962748843
    w: 0.00190724532244
---
header: 
  seq: 5385
  stamp: 
    secs: 1565219218
    nsecs: 392043828
  frame_id: "/stereo/left"
pose: 
  position: 
    x: -0.0621049007656
    y: -0.000779634125714
    z: 0.543525971523
  orientation: 
    x: -0.0130741677124
    y: -0.99829346641
    z: -0.0568802376851
    w: -0.00196459208907
---
header: 
  seq: 5386
  stamp: 
    secs: 1565219218
    nsecs: 978997230
  frame_id: "/stereo/left"
pose: 
  position: 
    x: -0.0619141577066
    y: -0.000805331847436
    z: 0.542941146151
  orientation: 
    x: -0.0126535341998
    y: -0.998237827155
    z: -0.0579745004493
    w: -0.000292928158694
---
header: 
  seq: 5387
  stamp: 
    secs: 1565219219
    nsecs: 555740833
  frame_id: "/stereo/left"
pose: 
  position: 
    x: -0.0620651308543
    y: -0.000764122065807
    z: 0.543308988241
  orientation: 
    x: -0.0133745806267
    y: -0.9982574615
    z: -0.0574461723894
    w: -0.00176023608164
---
header: 
  seq: 5388
  stamp: 
    secs: 1565219220
    nsecs: 767940282
  frame_id: "/stereo/left"
pose: 
  position: 
    x: -0.062079221961
    y: -0.000794488371762
    z: 0.543224822807
  orientation: 
    x: -0.0132405525603
    y: -0.998266968405
    z: -0.0572652453644
    w: -0.00290503584106
---
header: 
  seq: 5389
  stamp: 
    secs: 1565219221
    nsecs: 349418401
  frame_id: "/stereo/left"
pose: 
  position: 
    x: -0.0620454309254
    y: -0.000830472943067
    z: 0.543078626556
  orientation: 
    x: -0.0133792544114
    y: -0.998269321991
    z: -0.0571830735552
    w: -0.00307447919412
---
header: 
  seq: 5390
  stamp: 
    secs: 1565219221
    nsecs: 994443178
  frame_id: "/stereo/left"
pose: 
  position: 
    x: -0.0619399927949
    y: -0.000763617667564
    z: 0.542543587712
  orientation: 
    x: -0.012320268472
    y: -0.998243049265
    z: -0.0579525526747
    w: 0.000726097232651
---
header: 
  seq: 5391
  stamp: 
    secs: 1565219222
    nsecs: 558340072
  frame_id: "/stereo/left"
pose: 
  position: 
    x: -0.0620622936959
    y: -0.000790173976462
    z: 0.543213097808
  orientation: 
    x: -0.0132528428252
    y: -0.998292722295
    z: -0.05685013401
    w: -0.00201619277649
---
header: 
  seq: 5392
  stamp: 
    secs: 1565219223
    nsecs: 751159429
  frame_id: "/stereo/left"
pose: 
  position: 
    x: -0.0617934817405
    y: -0.000805194827868
    z: 0.5417478018
  orientation: 
    x: -0.0127377764603
    y: -0.998246414584
    z: -0.0578086621544
    w: -5.83155527656e-05
---
header: 
  seq: 5393
  stamp: 
    secs: 1565219224
    nsecs: 315646409
  frame_id: "/stereo/left"
pose: 
  position: 
    x: -0.0618847996776
    y: -0.000822576073287
    z: 0.542094005529
  orientation: 
    x: -0.0125257908571
    y: -0.998300392466
    z: -0.0569130055947
    w: 0.000583747178011
---
header: 
  seq: 5394
  stamp: 
    secs: 1565219224
    nsecs: 882804393
  frame_id: "/stereo/left"
pose: 
  position: 
    x: -0.0618992427285
    y: -0.000816934398788
    z: 0.542343765934
  orientation: 
    x: -0.0128502276327
    y: -0.998275234278
    z: -0.0572826580431
    w: -0.000354067678785
---
header: 
  seq: 5395
  stamp: 
    secs: 1565219226
    nsecs:  47021150
  frame_id: "/stereo/left"
pose: 
  position: 
    x: -0.0616687109724
    y: -0.000770135362062
    z: 0.542003596081
  orientation: 
    x: -0.0131527315992
    y: -0.998257978259
    z: -0.0574640001942
    w: 0.00242964531007
---
header: 
  seq: 5396
  stamp: 
    secs: 1565219226
    nsecs: 620069503
  frame_id: "/stereo/left"
pose: 
  position: 
    x: -0.0623074771246
    y: -0.000747383719431
    z: 0.545206774919
  orientation: 
    x: -0.0130898134327
    y: -0.998386987631
    z: -0.0552182912801
    w: -0.00173782105013
---
header: 
  seq: 5397
  stamp: 
    secs: 1565219227
    nsecs: 258970975
  frame_id: "/stereo/left"
pose: 
  position: 
    x: -0.0621443723438
    y: -0.000766784427855
    z: 0.543561685451
  orientation: 
    x: -0.0132779540071
    y: -0.998309374629
    z: -0.0565751462595
    w: -0.00115814087803
---
header: 
  seq: 5398
  stamp: 
    secs: 1565219227
    nsecs: 822170495
  frame_id: "/stereo/left"
pose: 
  position: 
    x: -0.0620667556943
    y: -0.000784297103502
    z: 0.543087819281
  orientation: 
    x: -0.013248443835
    y: -0.998158419659
    z: -0.0591632481109
    w: -0.00198949081913
---
header: 
  seq: 5399
  stamp: 
    secs: 1565219229
    nsecs:  17026662
  frame_id: "/stereo/left"
pose: 
  position: 
    x: -0.0619424652887
    y: -0.000728510664232
    z: 0.543042227892
  orientation: 
    x: -0.0126625097277
    y: -0.998260858225
    z: -0.0575743390209
    w: -0.000339514953986
---
header: 
  seq: 5400
  stamp: 
    secs: 1565219229
    nsecs: 583590745
  frame_id: "/stereo/left"
pose: 
  position: 
    x: -0.0618140234691
    y: -0.000811384101539
    z: 0.5421281541
  orientation: 
    x: -0.0126337841721
    y: -0.998334652783
    z: -0.0562511329806
    w: 0.00202943074201
---
header: 
  seq: 5401
  stamp: 
    secs: 1565219230
    nsecs: 152348041
  frame_id: "/stereo/left"
pose: 
  position: 
    x: -0.0628669070869
    y: -0.000243677646078
    z: 0.549234301877
  orientation: 
    x: -0.0149485935103
    y: -0.998681430093
    z: -0.0491101995832
    w: -0.000359215327966
---
header: 
  seq: 5402
  stamp: 
    secs: 1565219230
    nsecs: 793518781
  frame_id: "/stereo/left"
pose: 
  position: 
    x: -0.0630394988018
    y: -0.000107936471393
    z: 0.549871647414
  orientation: 
    x: -0.0155696849317
    y: -0.998834434519
    z: -0.0456741350233
    w: -0.00110937808318
---
header: 
  seq: 5403
  stamp: 
    secs: 1565219231
    nsecs: 945619344
  frame_id: "/stereo/left"
pose: 
  position: 
    x: -0.0623657352179
    y: -0.000548971072042
    z: 0.545997756979
  orientation: 
    x: -0.0135120226745
    y: -0.998274724579
    z: -0.0571386049289
    w: -0.000423481620709
---
header: 
  seq: 5404
  stamp: 
    secs: 1565219232
    nsecs: 556308746
  frame_id: "/stereo/left"
pose: 
  position: 
    x: -0.0622166406421
    y: -0.000698405295514
    z: 0.544720044818
  orientation: 
    x: -0.0133400460996
    y: -0.998201584451
    z: -0.058441565775
    w: -0.000472609216353
---
