header: 
  seq: 2408
  stamp: 
    secs: 1565216917
    nsecs: 771716117
  frame_id: "/stereo/left"
pose: 
  position: 
    x: 0.139978521617
    y: -0.0150799421873
    z: 0.582462911246
  orientation: 
    x: 0.00868468922461
    y: 0.999731114279
    z: 0.0212829460553
    w: 0.00305147867078
---
header: 
  seq: 2409
  stamp: 
    secs: 1565216918
    nsecs: 367775678
  frame_id: "/stereo/left"
pose: 
  position: 
    x: 0.140144557224
    y: -0.0150783977096
    z: 0.582944044815
  orientation: 
    x: 0.00931570194933
    y: 0.999707977366
    z: 0.0220314658431
    w: 0.00343397743568
---
header: 
  seq: 2410
  stamp: 
    secs: 1565216918
    nsecs: 972887516
  frame_id: "/stereo/left"
pose: 
  position: 
    x: 0.139966737557
    y: -0.01510185343
    z: 0.582259802475
  orientation: 
    x: 0.00921956838049
    y: 0.999710986271
    z: 0.0218470270132
    w: 0.00395612169905
---
header: 
  seq: 2411
  stamp: 
    secs: 1565216920
    nsecs: 163344860
  frame_id: "/stereo/left"
pose: 
  position: 
    x: 0.139940375758
    y: -0.0150804796762
    z: 0.582076327257
  orientation: 
    x: 0.00884736399446
    y: 0.999744261842
    z: 0.0206515130819
    w: 0.00257877346943
---
header: 
  seq: 2412
  stamp: 
    secs: 1565216920
    nsecs: 728441476
  frame_id: "/stereo/left"
pose: 
  position: 
    x: 0.140010280813
    y: -0.0150994233429
    z: 0.582417671211
  orientation: 
    x: 0.00905960572
    y: 0.999702079278
    z: 0.0221835074289
    w: 0.00464416081109
---
header: 
  seq: 2413
  stamp: 
    secs: 1565216921
    nsecs: 340917587
  frame_id: "/stereo/left"
pose: 
  position: 
    x: 0.139955390496
    y: -0.0150659139709
    z: 0.582219831304
  orientation: 
    x: 0.00924909309233
    y: 0.999679154589
    z: 0.0231117808069
    w: 0.00467843407429
---
header: 
  seq: 2414
  stamp: 
    secs: 1565216922
    nsecs: 479836940
  frame_id: "/stereo/left"
pose: 
  position: 
    x: 0.13999679038
    y: -0.0148697112267
    z: 0.582383166683
  orientation: 
    x: 0.00883493106706
    y: 0.999774521001
    z: 0.0190613180134
    w: 0.0030850130581
---
header: 
  seq: 2415
  stamp: 
    secs: 1565216923
    nsecs:  84922552
  frame_id: "/stereo/left"
pose: 
  position: 
    x: 0.139753463033
    y: -0.0147618163063
    z: 0.581800245061
  orientation: 
    x: 0.00775180377014
    y: 0.999855224971
    z: 0.0141519860884
    w: 0.00539999309348
---
header: 
  seq: 2416
  stamp: 
    secs: 1565216923
    nsecs: 650675535
  frame_id: "/stereo/left"
pose: 
  position: 
    x: 0.13989984418
    y: -0.0151045271233
    z: 0.582101827034
  orientation: 
    x: 0.00882190761198
    y: 0.999747204427
    z: 0.0203898140271
    w: 0.0034578417422
---
header: 
  seq: 2417
  stamp: 
    secs: 1565216924
    nsecs: 217972040
  frame_id: "/stereo/left"
pose: 
  position: 
    x: 0.139994825471
    y: -0.0148416949818
    z: 0.582737831636
  orientation: 
    x: 0.00864895261578
    y: 0.999805238952
    z: 0.0169419983806
    w: 0.00525818155874
---
header: 
  seq: 2418
  stamp: 
    secs: 1565216925
    nsecs: 438038349
  frame_id: "/stereo/left"
pose: 
  position: 
    x: 0.139789864195
    y: -0.0149595707315
    z: 0.581758587078
  orientation: 
    x: 0.00841379421281
    y: 0.999804024381
    z: 0.0169836421593
    w: 0.00571636227753
---
header: 
  seq: 2419
  stamp: 
    secs: 1565216926
    nsecs:  14416694
  frame_id: "/stereo/left"
pose: 
  position: 
    x: 0.140052353865
    y: -0.0150299484969
    z: 0.582526225142
  orientation: 
    x: 0.00956467422968
    y: 0.999669654401
    z: 0.0235915630664
    w: 0.00354079486347
---
header: 
  seq: 2420
  stamp: 
    secs: 1565216926
    nsecs: 624969005
  frame_id: "/stereo/left"
pose: 
  position: 
    x: 0.139895225352
    y: -0.014867567421
    z: 0.582087969326
  orientation: 
    x: 0.00850155810222
    y: 0.999806538712
    z: 0.0172545346882
    w: 0.00410970692573
---
header: 
  seq: 2421
  stamp: 
    secs: 1565216927
    nsecs: 203104496
  frame_id: "/stereo/left"
pose: 
  position: 
    x: 0.139971226098
    y: -0.014848714468
    z: 0.582449412263
  orientation: 
    x: 0.0088695804579
    y: 0.999801525516
    z: 0.017073515744
    w: 0.00517060715917
---
header: 
  seq: 2422
  stamp: 
    secs: 1565216927
    nsecs: 772868871
  frame_id: "/stereo/left"
pose: 
  position: 
    x: 0.139952416903
    y: -0.0148329208809
    z: 0.582501715343
  orientation: 
    x: 0.0091751143638
    y: 0.999805256636
    z: 0.016807991062
    w: 0.00477048380048
---
header: 
  seq: 2423
  stamp: 
    secs: 1565216928
    nsecs: 985150814
  frame_id: "/stereo/left"
pose: 
  position: 
    x: 0.139930339264
    y: -0.0150815984584
    z: 0.582085959614
  orientation: 
    x: 0.00916732406949
    y: 0.999716786877
    z: 0.0217108267843
    w: 0.00330850524588
---
header: 
  seq: 2424
  stamp: 
    secs: 1565216929
    nsecs: 558253288
  frame_id: "/stereo/left"
pose: 
  position: 
    x: 0.139959472902
    y: -0.0149379570403
    z: 0.582337477201
  orientation: 
    x: 0.0091613132482
    y: 0.999754527202
    z: 0.0200613635845
    w: 0.00212070047758
---
header: 
  seq: 2425
  stamp: 
    secs: 1565216930
    nsecs: 168621778
  frame_id: "/stereo/left"
pose: 
  position: 
    x: 0.139794894693
    y: -0.0149223608366
    z: 0.581423607077
  orientation: 
    x: 0.00897560124616
    y: 0.999762953991
    z: 0.0189080529304
    w: 0.00599666112611
---
header: 
  seq: 2426
  stamp: 
    secs: 1565216930
    nsecs: 741498708
  frame_id: "/stereo/left"
pose: 
  position: 
    x: 0.140016522144
    y: -0.0150467281967
    z: 0.582354088193
  orientation: 
    x: 0.00920713465384
    y: 0.999721082685
    z: 0.0214236338709
    w: 0.00374344996967
---
header: 
  seq: 2427
  stamp: 
    secs: 1565216931
    nsecs: 956154823
  frame_id: "/stereo/left"
pose: 
  position: 
    x: 0.139910778508
    y: -0.0148967561559
    z: 0.582248452218
  orientation: 
    x: 0.00941074139109
    y: 0.999773633991
    z: 0.0188156646545
    w: 0.00317639507613
---
header: 
  seq: 2428
  stamp: 
    secs: 1565216932
    nsecs: 528203010
  frame_id: "/stereo/left"
pose: 
  position: 
    x: 0.140062393902
    y: -0.0150490283702
    z: 0.582531394485
  orientation: 
    x: 0.00983071172356
    y: 0.999680160235
    z: 0.022985630582
    w: 0.00382035686984
---
header: 
  seq: 2429
  stamp: 
    secs: 1565216933
    nsecs: 101968288
  frame_id: "/stereo/left"
pose: 
  position: 
    x: 0.140035493016
    y: -0.0148305512352
    z: 0.582603980626
  orientation: 
    x: 0.0095148001625
    y: 0.999791943404
    z: 0.0174735000983
    w: 0.00449614014316
---
header: 
  seq: 2430
  stamp: 
    secs: 1565216934
    nsecs: 274283647
  frame_id: "/stereo/left"
pose: 
  position: 
    x: 0.139948737649
    y: -0.0150596104843
    z: 0.582005722022
  orientation: 
    x: 0.00940202083461
    y: 0.999694645373
    z: 0.0224763684327
    w: 0.00412684854942
---
header: 
  seq: 2431
  stamp: 
    secs: 1565216934
    nsecs: 848762035
  frame_id: "/stereo/left"
pose: 
  position: 
    x: 0.139806921499
    y: -0.0149007495237
    z: 0.581174690569
  orientation: 
    x: 0.00902730624887
    y: 0.999708782897
    z: 0.0205746563078
    w: 0.00880571735116
---
header: 
  seq: 2432
  stamp: 
    secs: 1565216935
    nsecs: 486767768
  frame_id: "/stereo/left"
pose: 
  position: 
    x: 0.140102852416
    y: -0.0151099285603
    z: 0.582636875332
  orientation: 
    x: 0.0093149802746
    y: 0.99968365234
    z: 0.0226498990241
    w: 0.00572786710548
---
header: 
  seq: 2433
  stamp: 
    secs: 1565216936
    nsecs:  56081771
  frame_id: "/stereo/left"
pose: 
  position: 
    x: 0.140108197984
    y: -0.0150224595366
    z: 0.582724737289
  orientation: 
    x: 0.0096613049255
    y: 0.999674204461
    z: 0.0229838175153
    w: 0.00546701512138
---
header: 
  seq: 2434
  stamp: 
    secs: 1565216937
    nsecs: 238083600
  frame_id: "/stereo/left"
pose: 
  position: 
    x: 0.140026857793
    y: -0.0151455882817
    z: 0.582517229914
  orientation: 
    x: 0.00942206861217
    y: 0.99968489799
    z: 0.0228291626144
    w: 0.00448984279589
---
header: 
  seq: 2435
  stamp: 
    secs: 1565216937
    nsecs: 806551456
  frame_id: "/stereo/left"
pose: 
  position: 
    x: 0.139957621063
    y: -0.0150677939808
    z: 0.582180694103
  orientation: 
    x: 0.00884893582707
    y: 0.999729820671
    z: 0.0210748128151
    w: 0.00422306285131
---
header: 
  seq: 2436
  stamp: 
    secs: 1565216938
    nsecs: 377763748
  frame_id: "/stereo/left"
pose: 
  position: 
    x: 0.139903846866
    y: -0.0149937975873
    z: 0.581959851751
  orientation: 
    x: 0.00890846396818
    y: 0.999760172175
    z: 0.019569379246
    w: 0.00415653687062
---
header: 
  seq: 2437
  stamp: 
    secs: 1565216939
    nsecs:  23474454
  frame_id: "/stereo/left"
pose: 
  position: 
    x: 0.140126798569
    y: -0.0150950256119
    z: 0.582858637293
  orientation: 
    x: 0.00959661203512
    y: 0.999693347972
    z: 0.0223274020513
    w: 0.00475417456983
---
header: 
  seq: 2438
  stamp: 
    secs: 1565216940
    nsecs: 181746006
  frame_id: "/stereo/left"
pose: 
  position: 
    x: 0.140019469339
    y: -0.0150058263493
    z: 0.582513705945
  orientation: 
    x: 0.00919196480286
    y: 0.999716877545
    z: 0.0214135150948
    w: 0.00480977202096
---
header: 
  seq: 2439
  stamp: 
    secs: 1565216940
    nsecs: 781636476
  frame_id: "/stereo/left"
pose: 
  position: 
    x: 0.139904207831
    y: -0.0148716631554
    z: 0.582066246154
  orientation: 
    x: 0.00882908211987
    y: 0.999771709526
    z: 0.018673571694
    w: 0.00546569846614
---
header: 
  seq: 2440
  stamp: 
    secs: 1565216941
    nsecs: 358344316
  frame_id: "/stereo/left"
pose: 
  position: 
    x: 0.140068472214
    y: -0.0149112889819
    z: 0.582734675482
  orientation: 
    x: 0.00875824873334
    y: 0.999796119089
    z: 0.0172691536681
    w: 0.00572622612437
---
header: 
  seq: 2441
  stamp: 
    secs: 1565216941
    nsecs: 930902242
  frame_id: "/stereo/left"
pose: 
  position: 
    x: 0.140104128076
    y: -0.0150016237753
    z: 0.582830740742
  orientation: 
    x: 0.00914919821337
    y: 0.999721577439
    z: 0.0210340850707
    w: 0.00553417029632
---
header: 
  seq: 2442
  stamp: 
    secs: 1565216943
    nsecs: 136237144
  frame_id: "/stereo/left"
pose: 
  position: 
    x: 0.139892572863
    y: -0.0150745963693
    z: 0.581923444052
  orientation: 
    x: 0.00879566527925
    y: 0.999731175317
    z: 0.0212779526333
    w: 0.00273168524757
---
header: 
  seq: 2443
  stamp: 
    secs: 1565216943
    nsecs: 706029653
  frame_id: "/stereo/left"
pose: 
  position: 
    x: 0.13994095254
    y: -0.0149584566057
    z: 0.582139004073
  orientation: 
    x: 0.00864985345255
    y: 0.999746586599
    z: 0.020455755846
    w: 0.0036748703801
---
header: 
  seq: 2444
  stamp: 
    secs: 1565216944
    nsecs: 313945770
  frame_id: "/stereo/left"
pose: 
  position: 
    x: 0.139795020598
    y: -0.0148923917361
    z: 0.581764066286
  orientation: 
    x: 0.00839743388195
    y: 0.999800040035
    z: 0.0170946276645
    w: 0.00609399330155
---
header: 
  seq: 2445
  stamp: 
    secs: 1565216944
    nsecs: 882413148
  frame_id: "/stereo/left"
pose: 
  position: 
    x: 0.139940947026
    y: -0.0149917072925
    z: 0.582204747103
  orientation: 
    x: 0.00910097180099
    y: 0.999716900538
    z: 0.0217111140716
    w: 0.00345233501795
---
header: 
  seq: 2446
  stamp: 
    secs: 1565216946
    nsecs: 105083227
  frame_id: "/stereo/left"
pose: 
  position: 
    x: 0.139973514437
    y: -0.0149248606027
    z: 0.582368141007
  orientation: 
    x: 0.00904852589442
    y: 0.999776163422
    z: 0.018798902066
    w: 0.0035140451526
---
header: 
  seq: 2447
  stamp: 
    secs: 1565216946
    nsecs: 670151233
  frame_id: "/stereo/left"
pose: 
  position: 
    x: 0.139948345146
    y: -0.0149392486989
    z: 0.58199120991
  orientation: 
    x: 0.00900390641435
    y: 0.99977917833
    z: 0.0185138024417
    w: 0.00421466082342
---
