header: 
  seq: 3141
  stamp: 
    secs: 1565217465
    nsecs: 605106115
  frame_id: "/stereo/left"
pose: 
  position: 
    x: 0.0886518450319
    y: -0.00576928005025
    z: 0.532865988313
  orientation: 
    x: 0.0145865698429
    y: 0.999547197559
    z: 0.0261922124947
    w: 0.00256901487941
---
header: 
  seq: 3142
  stamp: 
    secs: 1565217466
    nsecs: 178339242
  frame_id: "/stereo/left"
pose: 
  position: 
    x: 0.0887748040849
    y: -0.00573697955244
    z: 0.533224796937
  orientation: 
    x: -0.0137210049456
    y: -0.999554197828
    z: -0.0264038836126
    w: 0.00244429091934
---
header: 
  seq: 3143
  stamp: 
    secs: 1565217466
    nsecs: 743706703
  frame_id: "/stereo/left"
pose: 
  position: 
    x: 0.0885524316317
    y: -0.00572843707407
    z: 0.532548353047
  orientation: 
    x: -0.0137337489324
    y: -0.999593681915
    z: -0.0249080430935
    w: 0.00185596499585
---
header: 
  seq: 3144
  stamp: 
    secs: 1565217467
    nsecs: 912561655
  frame_id: "/stereo/left"
pose: 
  position: 
    x: 0.088692824392
    y: -0.00572632290434
    z: 0.53311209873
  orientation: 
    x: -0.013753320815
    y: -0.999574699531
    z: -0.0256958709723
    w: 0.000994203040417
---
header: 
  seq: 3145
  stamp: 
    secs: 1565217468
    nsecs: 483684062
  frame_id: "/stereo/left"
pose: 
  position: 
    x: 0.0886855387163
    y: -0.00574525381753
    z: 0.532864120942
  orientation: 
    x: -0.0137306123954
    y: -0.99959665195
    z: -0.0248595317317
    w: 8.58795818379e-05
---
header: 
  seq: 3146
  stamp: 
    secs: 1565217469
    nsecs:  55740118
  frame_id: "/stereo/left"
pose: 
  position: 
    x: 0.0885416531273
    y: -0.00579550429418
    z: 0.532632120141
  orientation: 
    x: -0.0142198816755
    y: -0.999580542632
    z: -0.0252050029626
    w: -0.00111426340557
---
header: 
  seq: 3147
  stamp: 
    secs: 1565217469
    nsecs: 695058107
  frame_id: "/stereo/left"
pose: 
  position: 
    x: 0.0888249970286
    y: -0.00569235596793
    z: 0.533491861547
  orientation: 
    x: -0.0137228356516
    y: -0.999571797187
    z: -0.0257734343824
    w: 0.00190686377985
---
header: 
  seq: 3148
  stamp: 
    secs: 1565217470
    nsecs: 845332145
  frame_id: "/stereo/left"
pose: 
  position: 
    x: 0.0888609218606
    y: -0.00573837026897
    z: 0.533502462419
  orientation: 
    x: -0.0138049290132
    y: -0.999554642378
    z: -0.0262292360989
    w: 0.00345948108494
---
header: 
  seq: 3149
  stamp: 
    secs: 1565217471
    nsecs: 449577808
  frame_id: "/stereo/left"
pose: 
  position: 
    x: 0.0886003690374
    y: -0.00570065037318
    z: 0.532872614136
  orientation: 
    x: -0.0137101134126
    y: -0.999607343667
    z: -0.0244324476957
    w: 0.000496766526578
---
header: 
  seq: 3150
  stamp: 
    secs: 1565217472
    nsecs:  31529903
  frame_id: "/stereo/left"
pose: 
  position: 
    x: 0.0886677368069
    y: -0.00574404642308
    z: 0.532837047055
  orientation: 
    x: -0.013946494324
    y: -0.999574215265
    z: -0.0256277716153
    w: 0.000317484513959
---
header: 
  seq: 3151
  stamp: 
    secs: 1565217472
    nsecs: 603154897
  frame_id: "/stereo/left"
pose: 
  position: 
    x: 0.0885433075721
    y: -0.00568870402505
    z: 0.532674199113
  orientation: 
    x: -0.0136856475295
    y: -0.999614314178
    z: -0.0241645328338
    w: -3.59947871848e-05
---
header: 
  seq: 3152
  stamp: 
    secs: 1565217473
    nsecs: 806100606
  frame_id: "/stereo/left"
pose: 
  position: 
    x: 0.0886580103684
    y: -0.00579092330768
    z: 0.533099170335
  orientation: 
    x: -0.0143733425325
    y: -0.999569937223
    z: -0.025449097759
    w: -0.0023855916065
---
header: 
  seq: 3153
  stamp: 
    secs: 1565217474
    nsecs: 386435508
  frame_id: "/stereo/left"
pose: 
  position: 
    x: 0.0887498336566
    y: -0.00565373186561
    z: 0.533407670436
  orientation: 
    x: -0.0133133067483
    y: -0.999594289211
    z: -0.0250128320953
    w: 0.00289328018247
---
header: 
  seq: 3154
  stamp: 
    secs: 1565217474
    nsecs: 997260332
  frame_id: "/stereo/left"
pose: 
  position: 
    x: 0.0887114529763
    y: -0.00573294182522
    z: 0.532932986046
  orientation: 
    x: -0.0137671249029
    y: -0.999559630282
    z: -0.0262211354526
    w: 0.00186113916339
---
header: 
  seq: 3155
  stamp: 
    secs: 1565217475
    nsecs: 570959329
  frame_id: "/stereo/left"
pose: 
  position: 
    x: 0.0886544319049
    y: -0.00579362408434
    z: 0.532500748356
  orientation: 
    x: -0.0137795566558
    y: -0.999611404658
    z: -0.0242067322433
    w: 0.00109435359989
---
header: 
  seq: 3156
  stamp: 
    secs: 1565217476
    nsecs: 794102191
  frame_id: "/stereo/left"
pose: 
  position: 
    x: 0.0886459824566
    y: -0.00571824495921
    z: 0.532818380337
  orientation: 
    x: -0.0134133377985
    y: -0.99960472533
    z: -0.0246621997832
    w: 0.00150045646114
---
header: 
  seq: 3157
  stamp: 
    secs: 1565217477
    nsecs: 368988513
  frame_id: "/stereo/left"
pose: 
  position: 
    x: 0.0886133210593
    y: -0.00586227501673
    z: 0.532279624226
  orientation: 
    x: -0.013893759731
    y: -0.999576530135
    z: -0.0255434595538
    w: -0.00112049848466
---
header: 
  seq: 3158
  stamp: 
    secs: 1565217477
    nsecs: 951948881
  frame_id: "/stereo/left"
pose: 
  position: 
    x: 0.0882085091354
    y: -0.00529810307743
    z: 0.532556310477
  orientation: 
    x: -0.0113051270494
    y: -0.999933035691
    z: -0.00210431021051
    w: -0.00130004409908
---
header: 
  seq: 3159
  stamp: 
    secs: 1565217479
    nsecs: 122271299
  frame_id: "/stereo/left"
pose: 
  position: 
    x: 0.0884395916022
    y: -0.00551405870012
    z: 0.532687332268
  orientation: 
    x: -0.0125992198942
    y: -0.999801772667
    z: -0.0153618116317
    w: 0.00129991265441
---
header: 
  seq: 3160
  stamp: 
    secs: 1565217479
    nsecs: 690232515
  frame_id: "/stereo/left"
pose: 
  position: 
    x: 0.0884550611892
    y: -0.00561665068763
    z: 0.532628029582
  orientation: 
    x: -0.0133696069141
    y: -0.999687537432
    z: -0.0211205913422
    w: -4.16685076766e-05
---
header: 
  seq: 3161
  stamp: 
    secs: 1565217480
    nsecs: 330823898
  frame_id: "/stereo/left"
pose: 
  position: 
    x: 0.0885993726207
    y: -0.00569263298773
    z: 0.532882431342
  orientation: 
    x: -0.0131513713818
    y: -0.999625809401
    z: -0.0239643125251
    w: 0.000997163739275
---
header: 
  seq: 3162
  stamp: 
    secs: 1565217481
    nsecs: 467092275
  frame_id: "/stereo/left"
pose: 
  position: 
    x: 0.0887442993739
    y: -0.00573358181205
    z: 0.533054990826
  orientation: 
    x: -0.0140354846389
    y: -0.999591198159
    z: -0.0248614175571
    w: 0.00153350921037
---
header: 
  seq: 3163
  stamp: 
    secs: 1565217482
    nsecs:  80693960
  frame_id: "/stereo/left"
pose: 
  position: 
    x: 0.0885189605368
    y: -0.00580087872329
    z: 0.532377465564
  orientation: 
    x: -0.0140236600953
    y: -0.999602784678
    z: -0.0244404576502
    w: -0.000523309028606
---
header: 
  seq: 3164
  stamp: 
    secs: 1565217482
    nsecs: 643045186
  frame_id: "/stereo/left"
pose: 
  position: 
    x: 0.0885055131879
    y: -0.0057605991971
    z: 0.532197714477
  orientation: 
    x: -0.0137943077165
    y: -0.999609830935
    z: -0.0242134133855
    w: -0.00190094302828
---
header: 
  seq: 3165
  stamp: 
    secs: 1565217483
    nsecs: 207726478
  frame_id: "/stereo/left"
pose: 
  position: 
    x: 0.088852115113
    y: -0.00574410824129
    z: 0.5330613918
  orientation: 
    x: 0.0140373393092
    y: 0.99958070979
    z: 0.0252656804743
    w: -0.00173294881934
---
header: 
  seq: 3166
  stamp: 
    secs: 1565217484
    nsecs: 385892868
  frame_id: "/stereo/left"
pose: 
  position: 
    x: 0.0886500222652
    y: -0.00581411291258
    z: 0.532637220222
  orientation: 
    x: -0.0140390902949
    y: -0.999591209141
    z: -0.0248994974116
    w: -0.000577564435517
---
header: 
  seq: 3167
  stamp: 
    secs: 1565217484
    nsecs: 950520277
  frame_id: "/stereo/left"
pose: 
  position: 
    x: 0.0887039864314
    y: -0.00567117965304
    z: 0.533238591771
  orientation: 
    x: -0.0134589314805
    y: -0.999593722677
    z: -0.0250817059484
    w: 0.00146791529727
---
header: 
  seq: 3168
  stamp: 
    secs: 1565217485
    nsecs: 549086809
  frame_id: "/stereo/left"
pose: 
  position: 
    x: 0.0887290126172
    y: -0.00574081798386
    z: 0.533131789858
  orientation: 
    x: -0.0135570120538
    y: -0.999607483776
    z: -0.0245135353606
    w: 0.000415195257445
---
header: 
  seq: 3169
  stamp: 
    secs: 1565217486
    nsecs: 690916776
  frame_id: "/stereo/left"
pose: 
  position: 
    x: 0.0889374848885
    y: -0.0056763913549
    z: 0.534059912519
  orientation: 
    x: 0.0141227619198
    y: 0.999539229319
    z: 0.0268239018513
    w: -0.00153458086351
---
header: 
  seq: 3170
  stamp: 
    secs: 1565217487
    nsecs: 324017763
  frame_id: "/stereo/left"
pose: 
  position: 
    x: 0.0886542353221
    y: -0.00574313497525
    z: 0.532764578553
  orientation: 
    x: -0.0138059328687
    y: -0.999589741878
    z: -0.0250902530483
    w: -0.000472601497423
---
header: 
  seq: 3171
  stamp: 
    secs: 1565217487
    nsecs: 892423868
  frame_id: "/stereo/left"
pose: 
  position: 
    x: 0.0886269924844
    y: -0.00576276323799
    z: 0.532898097582
  orientation: 
    x: -0.0139116759235
    y: -0.999589301523
    z: -0.0250525606965
    w: 0.000250512633012
---
header: 
  seq: 3172
  stamp: 
    secs: 1565217488
    nsecs: 459513425
  frame_id: "/stereo/left"
pose: 
  position: 
    x: 0.0886369342033
    y: -0.00581015947126
    z: 0.532173285885
  orientation: 
    x: -0.0143220145126
    y: -0.999576718314
    z: -0.02531005625
    w: 0.000815571403065
---
header: 
  seq: 3173
  stamp: 
    secs: 1565217489
    nsecs: 663228273
  frame_id: "/stereo/left"
pose: 
  position: 
    x: 0.0888037120441
    y: -0.0057293375842
    z: 0.533393549268
  orientation: 
    x: -0.0137784229774
    y: -0.999546907026
    z: -0.0265832079884
    w: 0.00307713646596
---
header: 
  seq: 3174
  stamp: 
    secs: 1565217490
    nsecs: 232090473
  frame_id: "/stereo/left"
pose: 
  position: 
    x: 0.0886603786783
    y: -0.00577105972408
    z: 0.532775761296
  orientation: 
    x: -0.0135944020657
    y: -0.99959835834
    z: -0.0248579323593
    w: 0.000630424228056
---
header: 
  seq: 3175
  stamp: 
    secs: 1565217490
    nsecs: 864244222
  frame_id: "/stereo/left"
pose: 
  position: 
    x: 0.0886798697508
    y: -0.00577004732645
    z: 0.533080027992
  orientation: 
    x: -0.0142271530511
    y: -0.999580568212
    z: -0.0251497010326
    w: -0.00194121272815
---
header: 
  seq: 3176
  stamp: 
    secs: 1565217491
    nsecs: 435570716
  frame_id: "/stereo/left"
pose: 
  position: 
    x: 0.0886945368635
    y: -0.00578651246795
    z: 0.532837281133
  orientation: 
    x: -0.014217045433
    y: -0.999565674711
    z: -0.0258129201076
    w: -0.000175252119783
---
header: 
  seq: 3177
  stamp: 
    secs: 1565217492
    nsecs: 610685110
  frame_id: "/stereo/left"
pose: 
  position: 
    x: 0.0886496609014
    y: -0.00573474779622
    z: 0.532656447276
  orientation: 
    x: -0.0134352141601
    y: -0.999599211773
    z: -0.0248611654568
    w: 0.00168323931287
---
header: 
  seq: 3178
  stamp: 
    secs: 1565217493
    nsecs: 178611516
  frame_id: "/stereo/left"
pose: 
  position: 
    x: 0.0886324836008
    y: -0.00571848044309
    z: 0.532759002905
  orientation: 
    x: -0.0133317854767
    y: -0.999624260467
    z: -0.0238929619357
    w: 0.00165159095393
---
header: 
  seq: 3179
  stamp: 
    secs: 1565217493
    nsecs: 747028112
  frame_id: "/stereo/left"
pose: 
  position: 
    x: 0.088536118452
    y: -0.00575758410364
    z: 0.532513066982
  orientation: 
    x: -0.0134110797097
    y: -0.999604212167
    z: -0.0246741642968
    w: 0.00165758111861
---
