header: 
  seq: 3784
  stamp: 
    secs: 1565217942
    nsecs: 552420616
  frame_id: "/stereo/left"
pose: 
  position: 
    x: -0.0133913249819
    y: 0.00557879060329
    z: 0.487677841175
  orientation: 
    x: -0.0203540554119
    y: -0.999771084174
    z: -0.00653601339364
    w: -0.000878752749736
---
header: 
  seq: 3785
  stamp: 
    secs: 1565217943
    nsecs: 203370809
  frame_id: "/stereo/left"
pose: 
  position: 
    x: -0.0132960944375
    y: 0.00560512573316
    z: 0.487117604723
  orientation: 
    x: -0.0200359462299
    y: -0.999738838497
    z: -0.0109206994321
    w: -0.00124658859161
---
header: 
  seq: 3786
  stamp: 
    secs: 1565217943
    nsecs: 831486940
  frame_id: "/stereo/left"
pose: 
  position: 
    x: -0.0134854623595
    y: 0.00544873271282
    z: 0.488353679422
  orientation: 
    x: -0.019864662657
    y: -0.99968952446
    z: -0.0117154205472
    w: -0.00943391672566
---
header: 
  seq: 3787
  stamp: 
    secs: 1565217944
    nsecs: 403773784
  frame_id: "/stereo/left"
pose: 
  position: 
    x: -0.0136107498677
    y: 0.00544479512663
    z: 0.488951032859
  orientation: 
    x: -0.019682837246
    y: -0.99968778661
    z: -0.0141683041119
    w: -0.00601451408394
---
header: 
  seq: 3788
  stamp: 
    secs: 1565217945
    nsecs: 576871156
  frame_id: "/stereo/left"
pose: 
  position: 
    x: -0.0135339732681
    y: 0.00541854803736
    z: 0.488866092035
  orientation: 
    x: -0.0201846471802
    y: -0.999688841438
    z: -0.0128152861581
    w: -0.00711117177615
---
header: 
  seq: 3789
  stamp: 
    secs: 1565217946
    nsecs: 149100542
  frame_id: "/stereo/left"
pose: 
  position: 
    x: -0.0133710150166
    y: 0.00543569593301
    z: 0.48828380426
  orientation: 
    x: -0.0202777210414
    y: -0.999704625653
    z: -0.0109986618393
    w: -0.00764885056849
---
header: 
  seq: 3790
  stamp: 
    secs: 1565217946
    nsecs: 722716331
  frame_id: "/stereo/left"
pose: 
  position: 
    x: -0.0133232112384
    y: 0.00544879917397
    z: 0.487250757004
  orientation: 
    x: -0.0207263039247
    y: -0.999666223703
    z: -0.0145605686431
    w: -0.00508442260116
---
header: 
  seq: 3791
  stamp: 
    secs: 1565217947
    nsecs: 369019031
  frame_id: "/stereo/left"
pose: 
  position: 
    x: -0.0131610020619
    y: 0.00548522863009
    z: 0.486412574606
  orientation: 
    x: -0.0208271118184
    y: -0.999659351139
    z: -0.0157097857468
    w: 0.000784681267699
---
header: 
  seq: 3792
  stamp: 
    secs: 1565217948
    nsecs: 515711307
  frame_id: "/stereo/left"
pose: 
  position: 
    x: -0.0132871673928
    y: 0.00542079964974
    z: 0.487087977883
  orientation: 
    x: -0.0208671558563
    y: -0.999677859507
    z: -0.0142630570636
    w: -0.00230308931269
---
header: 
  seq: 3793
  stamp: 
    secs: 1565217949
    nsecs: 123303651
  frame_id: "/stereo/left"
pose: 
  position: 
    x: -0.0134614679551
    y: 0.00547523956211
    z: 0.487701599299
  orientation: 
    x: -0.019859675668
    y: -0.999704906725
    z: -0.0133852883445
    w: -0.00406531767297
---
header: 
  seq: 3794
  stamp: 
    secs: 1565217949
    nsecs: 694638252
  frame_id: "/stereo/left"
pose: 
  position: 
    x: -0.0134396387471
    y: 0.00548641091474
    z: 0.487778358695
  orientation: 
    x: -0.0202340348687
    y: -0.999690015495
    z: -0.0141806793773
    w: -0.00306024277458
---
header: 
  seq: 3795
  stamp: 
    secs: 1565217950
    nsecs: 269093036
  frame_id: "/stereo/left"
pose: 
  position: 
    x: -0.0135364730944
    y: 0.0055055379964
    z: 0.487446423341
  orientation: 
    x: -0.0194731388042
    y: -0.999641000772
    z: -0.0177970016302
    w: -0.00468328664857
---
header: 
  seq: 3796
  stamp: 
    secs: 1565217951
    nsecs: 466838121
  frame_id: "/stereo/left"
pose: 
  position: 
    x: -0.0133707020282
    y: 0.00542869292014
    z: 0.487999361191
  orientation: 
    x: -0.0207194661985
    y: -0.999708095449
    z: -0.0105343812632
    w: -0.00659199710393
---
header: 
  seq: 3797
  stamp: 
    secs: 1565217952
    nsecs:  38487434
  frame_id: "/stereo/left"
pose: 
  position: 
    x: -0.0135313798659
    y: 0.00542594029937
    z: 0.488472017819
  orientation: 
    x: -0.0199839564165
    y: -0.999664582997
    z: -0.0156423161122
    w: -0.00516535908753
---
header: 
  seq: 3798
  stamp: 
    secs: 1565217952
    nsecs: 650763273
  frame_id: "/stereo/left"
pose: 
  position: 
    x: -0.0134424616001
    y: 0.00540817296509
    z: 0.488256158314
  orientation: 
    x: -0.0207031398276
    y: -0.99970790931
    z: -0.0118240725646
    w: -0.00395820314063
---
header: 
  seq: 3799
  stamp: 
    secs: 1565217953
    nsecs: 228049039
  frame_id: "/stereo/left"
pose: 
  position: 
    x: -0.0135144579982
    y: 0.00543143304659
    z: 0.488523310803
  orientation: 
    x: -0.0201465078216
    y: -0.999718751494
    z: -0.0114526956144
    w: -0.00503705249894
---
header: 
  seq: 3800
  stamp: 
    secs: 1565217954
    nsecs: 444985866
  frame_id: "/stereo/left"
pose: 
  position: 
    x: -0.0134853728343
    y: 0.00543049298993
    z: 0.488685981673
  orientation: 
    x: -0.0203104522556
    y: -0.999682459851
    z: -0.0142352656127
    w: -0.00445221386296
---
header: 
  seq: 3801
  stamp: 
    secs: 1565217955
    nsecs:  17149209
  frame_id: "/stereo/left"
pose: 
  position: 
    x: -0.0135037731672
    y: 0.00542836092735
    z: 0.488936128723
  orientation: 
    x: -0.0200233092571
    y: -0.999676788802
    z: -0.0146734104145
    w: -0.0054841629273
---
header: 
  seq: 3802
  stamp: 
    secs: 1565217955
    nsecs: 585840940
  frame_id: "/stereo/left"
pose: 
  position: 
    x: -0.0135468598695
    y: 0.00546713059173
    z: 0.488891439031
  orientation: 
    x: -0.0203255954593
    y: -0.999623373012
    z: -0.0166381129081
    w: -0.00794704321874
---
header: 
  seq: 3803
  stamp: 
    secs: 1565217956
    nsecs: 207806825
  frame_id: "/stereo/left"
pose: 
  position: 
    x: -0.0135504612366
    y: 0.00550392584559
    z: 0.489387394354
  orientation: 
    x: -0.0204166470529
    y: -0.999740599538
    z: -0.00922675320728
    w: -0.00409404236333
---
header: 
  seq: 3804
  stamp: 
    secs: 1565217957
    nsecs: 349549055
  frame_id: "/stereo/left"
pose: 
  position: 
    x: -0.0136657381557
    y: 0.00537956321632
    z: 0.488811193923
  orientation: 
    x: -0.0197068617749
    y: -0.999552598034
    z: -0.0204817877756
    w: -0.00931341676302
---
header: 
  seq: 3805
  stamp: 
    secs: 1565217957
    nsecs: 985058307
  frame_id: "/stereo/left"
pose: 
  position: 
    x: -0.013422172689
    y: 0.00543948480559
    z: 0.488698098493
  orientation: 
    x: -0.0206812020784
    y: -0.99965601265
    z: -0.015811160805
    w: -0.00318613348943
---
header: 
  seq: 3806
  stamp: 
    secs: 1565217958
    nsecs: 557485342
  frame_id: "/stereo/left"
pose: 
  position: 
    x: -0.0134598682547
    y: 0.00544320529172
    z: 0.488673353048
  orientation: 
    x: -0.0204310970385
    y: -0.9996966651
    z: -0.0134494247022
    w: -0.00287420191418
---
header: 
  seq: 3807
  stamp: 
    secs: 1565217959
    nsecs: 133416891
  frame_id: "/stereo/left"
pose: 
  position: 
    x: -0.0135004418347
    y: 0.00543844867035
    z: 0.488835036861
  orientation: 
    x: -0.0202423056174
    y: -0.999684816676
    z: -0.0142184464891
    w: -0.00428394092571
---
header: 
  seq: 3808
  stamp: 
    secs: 1565217960
    nsecs: 324496269
  frame_id: "/stereo/left"
pose: 
  position: 
    x: -0.0135238515306
    y: 0.00547842003498
    z: 0.489089281107
  orientation: 
    x: -0.0203862793275
    y: -0.999725769853
    z: -0.0110864449151
    w: -0.00314252228539
---
header: 
  seq: 3809
  stamp: 
    secs: 1565217960
    nsecs: 898166894
  frame_id: "/stereo/left"
pose: 
  position: 
    x: -0.0135585033317
    y: 0.00543754702251
    z: 0.489020161522
  orientation: 
    x: -0.0203340450145
    y: -0.999710166498
    z: -0.0120082585751
    w: -0.00468095501911
---
header: 
  seq: 3810
  stamp: 
    secs: 1565217961
    nsecs: 530008792
  frame_id: "/stereo/left"
pose: 
  position: 
    x: -0.0136311678229
    y: 0.00544704095958
    z: 0.489038026139
  orientation: 
    x: -0.0199091764456
    y: -0.999633674453
    z: -0.0176490826998
    w: -0.00496502488588
---
header: 
  seq: 3811
  stamp: 
    secs: 1565217962
    nsecs:  99672079
  frame_id: "/stereo/left"
pose: 
  position: 
    x: -0.0136073914598
    y: 0.00542755381653
    z: 0.488904325439
  orientation: 
    x: -0.0199705846895
    y: -0.999642672716
    z: -0.0163587665219
    w: -0.00693493978548
---
header: 
  seq: 3812
  stamp: 
    secs: 1565217963
    nsecs: 290167093
  frame_id: "/stereo/left"
pose: 
  position: 
    x: -0.0135795253492
    y: 0.00543811539295
    z: 0.488995644578
  orientation: 
    x: -0.0200143554744
    y: -0.999726515646
    z: -0.0115307048706
    w: -0.00365545266008
---
header: 
  seq: 3813
  stamp: 
    secs: 1565217963
    nsecs: 857277870
  frame_id: "/stereo/left"
pose: 
  position: 
    x: -0.0136202689889
    y: 0.00543382826916
    z: 0.488945678347
  orientation: 
    x: -0.0196943124859
    y: -0.99969226952
    z: -0.0143651476178
    w: -0.00459813574195
---
header: 
  seq: 3814
  stamp: 
    secs: 1565217964
    nsecs: 418892383
  frame_id: "/stereo/left"
pose: 
  position: 
    x: -0.0135713011198
    y: 0.00545914225475
    z: 0.489054277012
  orientation: 
    x: -0.0203345752226
    y: -0.999701101739
    z: -0.0129302681002
    w: -0.00412557865025
---
header: 
  seq: 3815
  stamp: 
    secs: 1565217965
    nsecs: 574488878
  frame_id: "/stereo/left"
pose: 
  position: 
    x: -0.0136184916323
    y: 0.00546761049163
    z: 0.489076211522
  orientation: 
    x: -0.0199753111251
    y: -0.999695561502
    z: -0.0133111397859
    w: -0.00570831117487
---
header: 
  seq: 3816
  stamp: 
    secs: 1565217966
    nsecs: 140117168
  frame_id: "/stereo/left"
pose: 
  position: 
    x: -0.0136074295622
    y: 0.00545867605529
    z: 0.48856598281
  orientation: 
    x: -0.0205530641625
    y: -0.999621068223
    z: -0.0169251244759
    w: -0.00698796681398
---
header: 
  seq: 3817
  stamp: 
    secs: 1565217966
    nsecs: 737857103
  frame_id: "/stereo/left"
pose: 
  position: 
    x: -0.01340339
    y: 0.00539287336582
    z: 0.488535249809
  orientation: 
    x: -0.0205924717604
    y: -0.999651993065
    z: -0.0160845657324
    w: -0.00362348076519
---
header: 
  seq: 3818
  stamp: 
    secs: 1565217967
    nsecs: 312760591
  frame_id: "/stereo/left"
pose: 
  position: 
    x: -0.0135736253221
    y: 0.00545264040323
    z: 0.489143573629
  orientation: 
    x: -0.0201608153259
    y: -0.999668790766
    z: -0.0151552399763
    w: -0.00511556398016
---
header: 
  seq: 3819
  stamp: 
    secs: 1565217968
    nsecs: 517790079
  frame_id: "/stereo/left"
pose: 
  position: 
    x: -0.013459795622
    y: 0.0054428893533
    z: 0.488832412871
  orientation: 
    x: -0.0205771512975
    y: -0.999712063601
    z: -0.0114941079052
    w: -0.0045006908453
---
header: 
  seq: 3820
  stamp: 
    secs: 1565217969
    nsecs:  79941034
  frame_id: "/stereo/left"
pose: 
  position: 
    x: -0.0134983584173
    y: 0.00548130113592
    z: 0.488799969368
  orientation: 
    x: -0.0205965798795
    y: -0.999725551892
    z: -0.0107768680649
    w: -0.00290876380855
---
header: 
  seq: 3821
  stamp: 
    secs: 1565217969
    nsecs: 661352872
  frame_id: "/stereo/left"
pose: 
  position: 
    x: -0.0135016676585
    y: 0.00541545725531
    z: 0.488752899036
  orientation: 
    x: -0.0199335403115
    y: -0.999684012832
    z: -0.0145366363939
    w: -0.00481815944385
---
header: 
  seq: 3822
  stamp: 
    secs: 1565217970
    nsecs: 840933561
  frame_id: "/stereo/left"
pose: 
  position: 
    x: -0.0134227027099
    y: 0.00546122147943
    z: 0.488915893611
  orientation: 
    x: -0.0205005982536
    y: -0.999705925098
    z: -0.0126236203629
    w: -0.00290396352153
---
header: 
  seq: 3823
  stamp: 
    secs: 1565217971
    nsecs: 412735700
  frame_id: "/stereo/left"
pose: 
  position: 
    x: -0.0133503137271
    y: 0.00541119528674
    z: 0.48844944447
  orientation: 
    x: -0.0210123956097
    y: -0.999641414895
    z: -0.0161731126852
    w: -0.00373514162988
---
