header: 
  seq: 4813
  stamp: 
    secs: 1565218713
    nsecs: 233308076
  frame_id: "/stereo/left"
pose: 
  position: 
    x: 0.184300567727
    y: 0.00736700256104
    z: 0.432339895515
  orientation: 
    x: 0.00997525583675
    y: 0.999871208611
    z: -0.012571994583
    w: -7.35766398203e-05
---
header: 
  seq: 4814
  stamp: 
    secs: 1565218713
    nsecs: 868327140
  frame_id: "/stereo/left"
pose: 
  position: 
    x: 0.186676123272
    y: 0.00663544735695
    z: 0.436355163556
  orientation: 
    x: 0.00528174571501
    y: 0.999979574146
    z: -0.00207258900708
    w: 0.00294258875681
---
header: 
  seq: 4815
  stamp: 
    secs: 1565218714
    nsecs: 452296257
  frame_id: "/stereo/left"
pose: 
  position: 
    x: 0.186817495683
    y: 0.00641529457791
    z: 0.436572913794
  orientation: 
    x: 0.00415301966961
    y: 0.999986675746
    z: -0.00301980074142
    w: 0.000530622900117
---
header: 
  seq: 4816
  stamp: 
    secs: 1565218715
    nsecs: 643091440
  frame_id: "/stereo/left"
pose: 
  position: 
    x: 0.186686731325
    y: 0.00660451947957
    z: 0.43621883184
  orientation: 
    x: 0.00575703078414
    y: 0.999981745248
    z: -0.000414550334066
    w: 0.00178715289907
---
header: 
  seq: 4817
  stamp: 
    secs: 1565218716
    nsecs: 206805467
  frame_id: "/stereo/left"
pose: 
  position: 
    x: 0.184202180852
    y: 0.00732039435657
    z: 0.431632144276
  orientation: 
    x: 0.00988918962722
    y: 0.999904010502
    z: -0.00967807505363
    w: 0.000713143778015
---
header: 
  seq: 4818
  stamp: 
    secs: 1565218716
    nsecs: 807597398
  frame_id: "/stereo/left"
pose: 
  position: 
    x: 0.184599218137
    y: 0.00731850162378
    z: 0.432549251828
  orientation: 
    x: 0.00959185615288
    y: 0.999913957202
    z: -0.0087251059686
    w: 0.00198670927923
---
header: 
  seq: 4819
  stamp: 
    secs: 1565218717
    nsecs: 951961278
  frame_id: "/stereo/left"
pose: 
  position: 
    x: 0.186831437117
    y: 0.00646561433328
    z: 0.436118652958
  orientation: 
    x: 0.0058767478463
    y: 0.999979849359
    z: 0.00150168586963
    w: 0.00187340628682
---
header: 
  seq: 4820
  stamp: 
    secs: 1565218718
    nsecs: 592264413
  frame_id: "/stereo/left"
pose: 
  position: 
    x: 0.184191704612
    y: 0.00739371484099
    z: 0.432265303588
  orientation: 
    x: 0.0106855746205
    y: 0.999889846115
    z: -0.0100471400186
    w: 0.00227356742802
---
header: 
  seq: 4821
  stamp: 
    secs: 1565218719
    nsecs: 163992881
  frame_id: "/stereo/left"
pose: 
  position: 
    x: 0.186146397102
    y: 0.00698545388785
    z: 0.435085660619
  orientation: 
    x: 0.00822665208332
    y: 0.999952185633
    z: 0.00169410129207
    w: 0.00500786019177
---
header: 
  seq: 4822
  stamp: 
    secs: 1565218719
    nsecs: 733034372
  frame_id: "/stereo/left"
pose: 
  position: 
    x: 0.184728037558
    y: 0.00737052382583
    z: 0.43249083333
  orientation: 
    x: 0.00925584068795
    y: 0.999901160176
    z: -0.0105823280128
    w: 0.000116725628858
---
header: 
  seq: 4823
  stamp: 
    secs: 1565218720
    nsecs: 903256416
  frame_id: "/stereo/left"
pose: 
  position: 
    x: 0.185933052416
    y: 0.00699981326563
    z: 0.434438956564
  orientation: 
    x: 0.00792175823567
    y: 0.99995072455
    z: 0.000251186705294
    w: 0.00597755162891
---
header: 
  seq: 4824
  stamp: 
    secs: 1565218721
    nsecs: 474676609
  frame_id: "/stereo/left"
pose: 
  position: 
    x: 0.183953290968
    y: 0.00726914605605
    z: 0.431678079853
  orientation: 
    x: 0.0100346552305
    y: 0.999892370863
    z: -0.0104947164908
    w: 0.0021007880771
---
header: 
  seq: 4825
  stamp: 
    secs: 1565218722
    nsecs:  71257114
  frame_id: "/stereo/left"
pose: 
  position: 
    x: 0.18618883039
    y: 0.00695195857534
    z: 0.43485553189
  orientation: 
    x: 0.00811387181962
    y: 0.999958445604
    z: 0.00179149512289
    w: 0.00375002582893
---
header: 
  seq: 4826
  stamp: 
    secs: 1565218722
    nsecs: 642491340
  frame_id: "/stereo/left"
pose: 
  position: 
    x: 0.186075759514
    y: 0.00702361879119
    z: 0.434726637081
  orientation: 
    x: 0.0087536389349
    y: 0.999944508604
    z: 0.00217328863172
    w: 0.00544337529113
---
header: 
  seq: 4827
  stamp: 
    secs: 1565218723
    nsecs: 852670192
  frame_id: "/stereo/left"
pose: 
  position: 
    x: 0.186617802392
    y: 0.00653817555421
    z: 0.436251709527
  orientation: 
    x: 0.00411279558711
    y: 0.999981937946
    z: -0.00335360697327
    w: 0.00282170401959
---
header: 
  seq: 4828
  stamp: 
    secs: 1565218724
    nsecs: 416778087
  frame_id: "/stereo/left"
pose: 
  position: 
    x: 0.186489433104
    y: 0.00652148787372
    z: 0.435999996894
  orientation: 
    x: 0.00397293801107
    y: 0.99997496823
    z: -0.00455887583631
    w: 0.00367359883816
---
header: 
  seq: 4829
  stamp: 
    secs: 1565218724
    nsecs: 995564460
  frame_id: "/stereo/left"
pose: 
  position: 
    x: 0.186507846943
    y: 0.00670693330384
    z: 0.435876964289
  orientation: 
    x: 0.00552513491104
    y: 0.999977869898
    z: -0.00100604988227
    w: 0.00356657577747
---
header: 
  seq: 4830
  stamp: 
    secs: 1565218726
    nsecs: 174583911
  frame_id: "/stereo/left"
pose: 
  position: 
    x: 0.184423067944
    y: 0.0072689580339
    z: 0.431994687345
  orientation: 
    x: 0.00968283869113
    y: 0.999913831306
    z: -0.00873649921533
    w: 0.00149872610514
---
header: 
  seq: 4831
  stamp: 
    secs: 1565218726
    nsecs: 742602586
  frame_id: "/stereo/left"
pose: 
  position: 
    x: 0.186748348815
    y: 0.0063615198268
    z: 0.436314526373
  orientation: 
    x: 0.00431541432358
    y: 0.999989379673
    z: -0.000960998232567
    w: 0.00130162350854
---
header: 
  seq: 4832
  stamp: 
    secs: 1565218727
    nsecs: 329499959
  frame_id: "/stereo/left"
pose: 
  position: 
    x: 0.18584489764
    y: 0.00695223104915
    z: 0.43419157001
  orientation: 
    x: 0.00748771043334
    y: 0.999946632621
    z: -0.000575743119955
    w: 0.00709468970594
---
header: 
  seq: 4833
  stamp: 
    secs: 1565218728
    nsecs: 455890417
  frame_id: "/stereo/left"
pose: 
  position: 
    x: 0.186432225139
    y: 0.00644068831283
    z: 0.435804507597
  orientation: 
    x: 0.00368723176285
    y: 0.99997373395
    z: -0.0040908101779
    w: 0.0047117940917
---
header: 
  seq: 4834
  stamp: 
    secs: 1565218729
    nsecs:  57927846
  frame_id: "/stereo/left"
pose: 
  position: 
    x: 0.184577030187
    y: 0.00730406919994
    z: 0.432005343465
  orientation: 
    x: 0.00953105705957
    y: 0.999923333993
    z: -0.00761297072141
    w: 0.00212785451599
---
header: 
  seq: 4835
  stamp: 
    secs: 1565218729
    nsecs: 637611150
  frame_id: "/stereo/left"
pose: 
  position: 
    x: 0.184318970033
    y: 0.00723268115259
    z: 0.431888073687
  orientation: 
    x: 0.00921414814976
    y: 0.999906274422
    z: -0.00981934267724
    w: 0.00247433906996
---
header: 
  seq: 4836
  stamp: 
    secs: 1565218730
    nsecs: 210484266
  frame_id: "/stereo/left"
pose: 
  position: 
    x: 0.186768147025
    y: 0.00631807167626
    z: 0.436297647949
  orientation: 
    x: 0.00416821104125
    y: 0.999985369127
    z: -0.00260040756862
    w: 0.00226394123708
---
header: 
  seq: 4837
  stamp: 
    secs: 1565218731
    nsecs: 401476860
  frame_id: "/stereo/left"
pose: 
  position: 
    x: 0.185870295816
    y: 0.00681996957389
    z: 0.434108308173
  orientation: 
    x: 0.00799633960286
    y: 0.999934142943
    z: 0.000697663416535
    w: 0.0082025359084
---
header: 
  seq: 4838
  stamp: 
    secs: 1565218731
    nsecs: 974604845
  frame_id: "/stereo/left"
pose: 
  position: 
    x: 0.186532280253
    y: 0.0063313490844
    z: 0.435865826768
  orientation: 
    x: 0.00419841446182
    y: 0.999982081671
    z: -0.00189542771038
    w: 0.00382321951707
---
header: 
  seq: 4839
  stamp: 
    secs: 1565218732
    nsecs: 580221652
  frame_id: "/stereo/left"
pose: 
  position: 
    x: 0.186480035021
    y: 0.00648688820557
    z: 0.435660795906
  orientation: 
    x: 0.00539239807153
    y: 0.999974716496
    z: 0.000221401887748
    w: 0.00463026928818
---
header: 
  seq: 4840
  stamp: 
    secs: 1565218733
    nsecs: 146972656
  frame_id: "/stereo/left"
pose: 
  position: 
    x: 0.185973154084
    y: 0.00687198448077
    z: 0.434234423045
  orientation: 
    x: 0.0083328021549
    y: 0.999938828473
    z: 0.00243258114131
    w: 0.00685465311092
---
header: 
  seq: 4841
  stamp: 
    secs: 1565218734
    nsecs: 309197902
  frame_id: "/stereo/left"
pose: 
  position: 
    x: 0.186815362549
    y: 0.00640294001279
    z: 0.436245027955
  orientation: 
    x: 0.00613417647025
    y: 0.999979858291
    z: 0.00101997316113
    w: 0.00127064778823
---
header: 
  seq: 4842
  stamp: 
    secs: 1565218734
    nsecs: 870963811
  frame_id: "/stereo/left"
pose: 
  position: 
    x: 0.185803254482
    y: 0.0068444852923
    z: 0.433923550347
  orientation: 
    x: 0.00751017986148
    y: 0.999926046528
    z: 0.000653734876847
    w: 0.00954312860465
---
header: 
  seq: 4843
  stamp: 
    secs: 1565218735
    nsecs: 436781883
  frame_id: "/stereo/left"
pose: 
  position: 
    x: 0.184364397315
    y: 0.00728097569276
    z: 0.43163635511
  orientation: 
    x: 0.0089931973894
    y: 0.999912657058
    z: -0.00918248083246
    w: 0.00307939953941
---
header: 
  seq: 4844
  stamp: 
    secs: 1565218736
    nsecs:  83373069
  frame_id: "/stereo/left"
pose: 
  position: 
    x: 0.186905500207
    y: 0.00630414979035
    z: 0.43665340706
  orientation: 
    x: 0.0038631558998
    y: 0.999985504389
    z: -0.00362204322343
    w: -0.000973571585889
---
header: 
  seq: 4845
  stamp: 
    secs: 1565218737
    nsecs: 253686428
  frame_id: "/stereo/left"
pose: 
  position: 
    x: 0.186574993042
    y: 0.00638325929765
    z: 0.436323507045
  orientation: 
    x: 0.00236599225888
    y: 0.999971786382
    z: -0.006464414065
    w: 0.00300663804562
---
header: 
  seq: 4846
  stamp: 
    secs: 1565218737
    nsecs: 851004838
  frame_id: "/stereo/left"
pose: 
  position: 
    x: 0.186538851685
    y: 0.00656219235087
    z: 0.435995360998
  orientation: 
    x: 0.00455468901544
    y: 0.999978550126
    z: -0.00239381459174
    w: 0.00405262234603
---
header: 
  seq: 4847
  stamp: 
    secs: 1565218738
    nsecs: 413508892
  frame_id: "/stereo/left"
pose: 
  position: 
    x: 0.184691328456
    y: 0.00733739525932
    z: 0.432197970952
  orientation: 
    x: 0.0098698612701
    y: 0.99992191357
    z: -0.00732213370896
    w: 0.00226692713529
---
header: 
  seq: 4848
  stamp: 
    secs: 1565218738
    nsecs: 971846818
  frame_id: "/stereo/left"
pose: 
  position: 
    x: 0.186662904669
    y: 0.0063683716404
    z: 0.436127924183
  orientation: 
    x: 0.00435120935578
    y: 0.999987007201
    z: -0.00163748158863
    w: 0.00209070810547
---
header: 
  seq: 4849
  stamp: 
    secs: 1565218740
    nsecs: 147880554
  frame_id: "/stereo/left"
pose: 
  position: 
    x: 0.185913716353
    y: 0.00696089343805
    z: 0.434373839945
  orientation: 
    x: 0.00796613538263
    y: 0.99994495231
    z: -0.000754560346126
    w: 0.00678702252189
---
header: 
  seq: 4850
  stamp: 
    secs: 1565218740
    nsecs: 718966245
  frame_id: "/stereo/left"
pose: 
  position: 
    x: 0.184594239234
    y: 0.00730490238093
    z: 0.432222978791
  orientation: 
    x: 0.00944097550892
    y: 0.999903544015
    z: -0.00980926500744
    w: 0.00274753860155
---
header: 
  seq: 4851
  stamp: 
    secs: 1565218741
    nsecs: 359408855
  frame_id: "/stereo/left"
pose: 
  position: 
    x: 0.18672262469
    y: 0.00642391492874
    z: 0.436459663981
  orientation: 
    x: 0.00423726661137
    y: 0.999983432451
    z: -0.00323761186467
    w: 0.00216754818344
---
header: 
  seq: 4852
  stamp: 
    secs: 1565218741
    nsecs: 928956747
  frame_id: "/stereo/left"
pose: 
  position: 
    x: 0.183585123734
    y: 0.00711932629608
    z: 0.43285751733
  orientation: 
    x: 0.0128008737632
    y: 0.999886780298
    z: -0.007537404388
    w: -0.00239828108639
---
