header: 
  seq: 4235
  stamp: 
    secs: 1565218280
    nsecs: 848526716
  frame_id: "/stereo/left"
pose: 
  position: 
    x: 0.23617688934
    y: -0.00262479339837
    z: 0.478306374323
  orientation: 
    x: -0.00545302942468
    y: 0.99980386137
    z: -0.0188926453686
    w: -0.00236034121905
---
header: 
  seq: 4236
  stamp: 
    secs: 1565218281
    nsecs: 452154874
  frame_id: "/stereo/left"
pose: 
  position: 
    x: 0.234445992225
    y: -0.00147023686552
    z: 0.47365686582
  orientation: 
    x: 0.00422591824428
    y: 0.999911631123
    z: -0.0111786764132
    w: 0.00582312234288
---
header: 
  seq: 4237
  stamp: 
    secs: 1565218282
    nsecs: 659879922
  frame_id: "/stereo/left"
pose: 
  position: 
    x: 0.236876956596
    y: -0.00309698383931
    z: 0.480880381173
  orientation: 
    x: -0.0116054729718
    y: 0.999794194822
    z: -0.0166371010386
    w: 0.000296423754761
---
header: 
  seq: 4238
  stamp: 
    secs: 1565218283
    nsecs: 236033916
  frame_id: "/stereo/left"
pose: 
  position: 
    x: 0.236882382098
    y: -0.00294621148289
    z: 0.480659169087
  orientation: 
    x: -0.0106077549468
    y: 0.999811441637
    z: -0.0162608607965
    w: 0.00037565012603
---
header: 
  seq: 4239
  stamp: 
    secs: 1565218283
    nsecs: 800360918
  frame_id: "/stereo/left"
pose: 
  position: 
    x: 0.236384132755
    y: -0.00271999706464
    z: 0.478555563117
  orientation: 
    x: -0.00774448487178
    y: 0.999786238841
    z: -0.018712454866
    w: 0.00416456621811
---
header: 
  seq: 4240
  stamp: 
    secs: 1565218284
    nsecs: 449642181
  frame_id: "/stereo/left"
pose: 
  position: 
    x: 0.237179594692
    y: -0.00309882348739
    z: 0.48146867018
  orientation: 
    x: -0.0107467466444
    y: 0.999816641388
    z: -0.0152338008078
    w: -0.00437291126294
---
header: 
  seq: 4241
  stamp: 
    secs: 1565218285
    nsecs: 592947959
  frame_id: "/stereo/left"
pose: 
  position: 
    x: 0.236637066439
    y: -0.00295945838761
    z: 0.480020132939
  orientation: 
    x: -0.0116717204947
    y: 0.99974220751
    z: -0.01913259419
    w: 0.00363776064798
---
header: 
  seq: 4242
  stamp: 
    secs: 1565218286
    nsecs: 209360837
  frame_id: "/stereo/left"
pose: 
  position: 
    x: 0.234680354506
    y: -0.00154734341669
    z: 0.473924615912
  orientation: 
    x: 0.00324443479697
    y: 0.999862368049
    z: -0.0150457064152
    w: 0.0061923599178
---
header: 
  seq: 4243
  stamp: 
    secs: 1565218286
    nsecs: 774087429
  frame_id: "/stereo/left"
pose: 
  position: 
    x: 0.237312429376
    y: -0.00308544584581
    z: 0.481741051674
  orientation: 
    x: -0.0109920540425
    y: 0.999803044473
    z: -0.0160388732846
    w: -0.00397511676154
---
header: 
  seq: 4244
  stamp: 
    secs: 1565218287
    nsecs: 928569078
  frame_id: "/stereo/left"
pose: 
  position: 
    x: 0.234877658186
    y: -0.00151369550507
    z: 0.473990999537
  orientation: 
    x: 0.00479218839488
    y: 0.999868732001
    z: -0.0129915513649
    w: 0.00841268625148
---
header: 
  seq: 4245
  stamp: 
    secs: 1565218288
    nsecs: 492655515
  frame_id: "/stereo/left"
pose: 
  position: 
    x: 0.236805974437
    y: -0.00300498156448
    z: 0.480750714616
  orientation: 
    x: -0.0122346580295
    y: 0.999729270224
    z: -0.0197738852901
    w: 0.000832382988253
---
header: 
  seq: 4246
  stamp: 
    secs: 1565218289
    nsecs:  57138204
  frame_id: "/stereo/left"
pose: 
  position: 
    x: 0.234581986388
    y: -0.00137520545471
    z: 0.47369975824
  orientation: 
    x: 0.00375903401432
    y: 0.999847729971
    z: -0.0162467177941
    w: 0.00514107932037
---
header: 
  seq: 4247
  stamp: 
    secs: 1565218289
    nsecs: 710898876
  frame_id: "/stereo/left"
pose: 
  position: 
    x: 0.235049113172
    y: -0.00138249559657
    z: 0.474392523435
  orientation: 
    x: 0.00404344956965
    y: 0.999884763419
    z: -0.0137430984528
    w: 0.00502370804166
---
header: 
  seq: 4248
  stamp: 
    secs: 1565218290
    nsecs: 858437299
  frame_id: "/stereo/left"
pose: 
  position: 
    x: 0.236893013547
    y: -0.00303114621031
    z: 0.481049290682
  orientation: 
    x: -0.0116860871341
    y: 0.999761422119
    z: -0.0184517006671
    w: 0.000262589735031
---
header: 
  seq: 4249
  stamp: 
    secs: 1565218291
    nsecs: 457776784
  frame_id: "/stereo/left"
pose: 
  position: 
    x: 0.235883992246
    y: -0.00241327528724
    z: 0.477516516064
  orientation: 
    x: -0.0055846898273
    y: 0.999735047951
    z: -0.0223291969843
    w: 0.000228252142617
---
header: 
  seq: 4250
  stamp: 
    secs: 1565218292
    nsecs:  31783103
  frame_id: "/stereo/left"
pose: 
  position: 
    x: 0.234963405149
    y: -0.00148165276525
    z: 0.474293350078
  orientation: 
    x: 0.00364697684019
    y: 0.999858540067
    z: -0.0153633778245
    w: 0.00579362041955
---
header: 
  seq: 4251
  stamp: 
    secs: 1565218292
    nsecs: 607661962
  frame_id: "/stereo/left"
pose: 
  position: 
    x: 0.236856829503
    y: -0.00303605457572
    z: 0.48061078954
  orientation: 
    x: -0.012197624876
    y: 0.999710533094
    z: -0.0207374362504
    w: -0.000163419337998
---
header: 
  seq: 4252
  stamp: 
    secs: 1565218293
    nsecs: 815273523
  frame_id: "/stereo/left"
pose: 
  position: 
    x: 0.236584928087
    y: -0.00296732402845
    z: 0.480005289628
  orientation: 
    x: -0.0117698192412
    y: 0.999751614681
    z: -0.0186779465221
    w: 0.0030519849806
---
header: 
  seq: 4253
  stamp: 
    secs: 1565218294
    nsecs: 394875049
  frame_id: "/stereo/left"
pose: 
  position: 
    x: 0.234773867193
    y: -0.00145873844474
    z: 0.474187500893
  orientation: 
    x: 0.00404613934567
    y: 0.999884350401
    z: -0.0139720702189
    w: 0.00443799876339
---
header: 
  seq: 4254
  stamp: 
    secs: 1565218294
    nsecs: 997222661
  frame_id: "/stereo/left"
pose: 
  position: 
    x: 0.236702472438
    y: -0.00298267557079
    z: 0.48042359013
  orientation: 
    x: -0.01113078073
    y: 0.999790250277
    z: -0.0171656061178
    w: 0.000950335238122
---
header: 
  seq: 4255
  stamp: 
    secs: 1565218295
    nsecs: 567919969
  frame_id: "/stereo/left"
pose: 
  position: 
    x: 0.237101397248
    y: -0.0029819789429
    z: 0.481142361249
  orientation: 
    x: -0.00979357041961
    y: 0.999832001134
    z: -0.014901536655
    w: -0.00424260449985
---
header: 
  seq: 4256
  stamp: 
    secs: 1565218296
    nsecs: 778482675
  frame_id: "/stereo/left"
pose: 
  position: 
    x: 0.236219629202
    y: -0.000896987731079
    z: 0.480027270635
  orientation: 
    x: -0.0031568439681
    y: 0.999696268633
    z: -0.0234664088515
    w: -0.00683611540025
---
header: 
  seq: 4257
  stamp: 
    secs: 1565218297
    nsecs: 356843471
  frame_id: "/stereo/left"
pose: 
  position: 
    x: 0.234906617711
    y: -0.00159072039566
    z: 0.474125959438
  orientation: 
    x: 0.00229995369221
    y: 0.999841055659
    z: -0.0159830414461
    w: 0.00755751403686
---
header: 
  seq: 4258
  stamp: 
    secs: 1565218297
    nsecs: 926122188
  frame_id: "/stereo/left"
pose: 
  position: 
    x: 0.235114100516
    y: -0.00164329163394
    z: 0.474679700352
  orientation: 
    x: 0.00442159580353
    y: 0.999903980145
    z: -0.0116790182252
    w: 0.00600670567367
---
header: 
  seq: 4259
  stamp: 
    secs: 1565218298
    nsecs: 538207769
  frame_id: "/stereo/left"
pose: 
  position: 
    x: 0.236985727536
    y: -0.00316759064868
    z: 0.481031143947
  orientation: 
    x: -0.0115084965931
    y: 0.99977962114
    z: -0.0172487910448
    w: -0.00327763117709
---
header: 
  seq: 4260
  stamp: 
    secs: 1565218299
    nsecs: 688141584
  frame_id: "/stereo/left"
pose: 
  position: 
    x: 0.236060512681
    y: -0.00258451307556
    z: 0.477536761537
  orientation: 
    x: -0.00651695366153
    y: 0.999776699305
    z: -0.0190501740048
    w: 0.00641651874226
---
header: 
  seq: 4261
  stamp: 
    secs: 1565218300
    nsecs: 339152336
  frame_id: "/stereo/left"
pose: 
  position: 
    x: 0.237188049158
    y: -0.0031541333324
    z: 0.481305894084
  orientation: 
    x: -0.0104267664737
    y: 0.999810413498
    z: -0.0154187760725
    w: -0.00571672518753
---
header: 
  seq: 4262
  stamp: 
    secs: 1565218300
    nsecs: 909270763
  frame_id: "/stereo/left"
pose: 
  position: 
    x: 0.234664847766
    y: -0.00150103936082
    z: 0.474380935413
  orientation: 
    x: 0.00328205243923
    y: 0.999889919251
    z: -0.0143034602087
    w: 0.00218827301306
---
header: 
  seq: 4263
  stamp: 
    secs: 1565218301
    nsecs: 476176023
  frame_id: "/stereo/left"
pose: 
  position: 
    x: 0.237084939231
    y: -0.00312579445569
    z: 0.481143226445
  orientation: 
    x: -0.0107733562575
    y: 0.999803401727
    z: -0.0161728944689
    w: -0.00394083433892
---
header: 
  seq: 4264
  stamp: 
    secs: 1565218302
    nsecs: 648122787
  frame_id: "/stereo/left"
pose: 
  position: 
    x: 0.235848040347
    y: -0.00248543594508
    z: 0.477592193982
  orientation: 
    x: -0.00587132046455
    y: 0.99974645673
    z: -0.0217364920824
    w: -0.000273429964771
---
header: 
  seq: 4265
  stamp: 
    secs: 1565218303
    nsecs: 221810102
  frame_id: "/stereo/left"
pose: 
  position: 
    x: 0.235718072746
    y: -0.000905294243977
    z: 0.478173946744
  orientation: 
    x: -0.00154941813565
    y: 0.99969334601
    z: -0.0231367333603
    w: -0.00868935068779
---
header: 
  seq: 4266
  stamp: 
    secs: 1565218303
    nsecs: 821038722
  frame_id: "/stereo/left"
pose: 
  position: 
    x: 0.236894828889
    y: -0.00306343546325
    z: 0.48115401063
  orientation: 
    x: -0.0126174329265
    y: 0.999723470701
    z: -0.0198318447731
    w: 0.000693144029335
---
header: 
  seq: 4267
  stamp: 
    secs: 1565218304
    nsecs: 398374080
  frame_id: "/stereo/left"
pose: 
  position: 
    x: 0.23691192553
    y: -0.00295146854226
    z: 0.480589959385
  orientation: 
    x: -0.0110889376779
    y: 0.999736602494
    z: -0.0200265813874
    w: -0.0016422948868
---
header: 
  seq: 4268
  stamp: 
    secs: 1565218305
    nsecs: 550282239
  frame_id: "/stereo/left"
pose: 
  position: 
    x: 0.238846859855
    y: 8.02156009386e-05
    z: 0.48360041743
  orientation: 
    x: -0.00358705291435
    y: 0.999196580022
    z: -0.0360716202795
    w: -0.0170928562035
---
header: 
  seq: 4269
  stamp: 
    secs: 1565218306
    nsecs: 113454818
  frame_id: "/stereo/left"
pose: 
  position: 
    x: 0.237310132781
    y: -0.00304645849962
    z: 0.481678114699
  orientation: 
    x: -0.010402370102
    y: 0.999814337253
    z: -0.0157706669947
    w: -0.00379048582457
---
header: 
  seq: 4270
  stamp: 
    secs: 1565218306
    nsecs: 672592639
  frame_id: "/stereo/left"
pose: 
  position: 
    x: 0.235957988631
    y: -0.00244434850921
    z: 0.477805658531
  orientation: 
    x: -0.00611953358722
    y: 0.999718105481
    z: -0.0229287820531
    w: 0.000729271050537
---
header: 
  seq: 4271
  stamp: 
    secs: 1565218307
    nsecs: 278694629
  frame_id: "/stereo/left"
pose: 
  position: 
    x: 0.235108661256
    y: -0.00142483720268
    z: 0.474433774796
  orientation: 
    x: 0.00374442736911
    y: 0.999848653976
    z: -0.0161654446027
    w: 0.00522750480407
---
header: 
  seq: 4272
  stamp: 
    secs: 1565218308
    nsecs: 422240018
  frame_id: "/stereo/left"
pose: 
  position: 
    x: 0.236746280153
    y: -0.00292893497745
    z: 0.480076584234
  orientation: 
    x: -0.0113035070238
    y: 0.999729710125
    z: -0.0194054625687
    w: 0.006013771267
---
header: 
  seq: 4273
  stamp: 
    secs: 1565218309
    nsecs:  11059284
  frame_id: "/stereo/left"
pose: 
  position: 
    x: 0.234810504533
    y: -0.0015045441275
    z: 0.474224389509
  orientation: 
    x: 0.00446587982565
    y: 0.99989589575
    z: -0.0125497945508
    w: 0.00554583048116
---
header: 
  seq: 4274
  stamp: 
    secs: 1565218309
    nsecs: 577949762
  frame_id: "/stereo/left"
pose: 
  position: 
    x: 0.234832411506
    y: -0.00164072825127
    z: 0.474519796465
  orientation: 
    x: 0.00318251376647
    y: 0.999898716125
    z: -0.0130760598168
    w: 0.00463095651984
---
