header: 
  seq: 2723
  stamp: 
    secs: 1565217153
    nsecs:   7933855
  frame_id: "/stereo/left"
pose: 
  position: 
    x: 0.284285831935
    y: -0.0193129650474
    z: 0.564102065417
  orientation: 
    x: -0.011714567929
    y: 0.99810293723
    z: 0.00548918162727
    w: 0.0601927277674
---
header: 
  seq: 2724
  stamp: 
    secs: 1565217153
    nsecs: 600498914
  frame_id: "/stereo/left"
pose: 
  position: 
    x: 0.280487923336
    y: -0.0177075882262
    z: 0.555330624409
  orientation: 
    x: -0.012062699136
    y: 0.997745362452
    z: -0.00564973479855
    w: 0.06577813841
---
header: 
  seq: 2725
  stamp: 
    secs: 1565217154
    nsecs: 235264301
  frame_id: "/stereo/left"
pose: 
  position: 
    x: 0.284165591777
    y: -0.019266938775
    z: 0.564030100636
  orientation: 
    x: -0.013098224781
    y: 0.998164598339
    z: 0.00225061132847
    w: 0.0590830422238
---
header: 
  seq: 2726
  stamp: 
    secs: 1565217155
    nsecs: 449228286
  frame_id: "/stereo/left"
pose: 
  position: 
    x: 0.280719705371
    y: -0.017807959392
    z: 0.555969596428
  orientation: 
    x: -0.0127355028749
    y: 0.997647617136
    z: -0.00462757012364
    w: 0.0671983971912
---
header: 
  seq: 2727
  stamp: 
    secs: 1565217156
    nsecs:  21589756
  frame_id: "/stereo/left"
pose: 
  position: 
    x: 0.288759734017
    y: -0.0178825647505
    z: 0.574107900147
  orientation: 
    x: -0.0169265685798
    y: 0.998255591509
    z: -0.0135181987156
    w: 0.054922887768
---
header: 
  seq: 2728
  stamp: 
    secs: 1565217156
    nsecs: 679441213
  frame_id: "/stereo/left"
pose: 
  position: 
    x: 0.286665867147
    y: -0.0174460794213
    z: 0.568751552486
  orientation: 
    x: -0.0149339777447
    y: 0.998462907294
    z: -0.0216595845719
    w: 0.0487817738726
---
header: 
  seq: 2729
  stamp: 
    secs: 1565217157
    nsecs: 253773689
  frame_id: "/stereo/left"
pose: 
  position: 
    x: 0.286448606709
    y: -0.0194296887363
    z: 0.568475406984
  orientation: 
    x: -0.0108370372155
    y: 0.998427189334
    z: 0.0054789044741
    w: 0.0547328770387
---
header: 
  seq: 2730
  stamp: 
    secs: 1565217158
    nsecs: 427599668
  frame_id: "/stereo/left"
pose: 
  position: 
    x: 0.286707800394
    y: -0.0198920143474
    z: 0.568950758115
  orientation: 
    x: -0.0101195341544
    y: 0.998503218968
    z: 0.00943998994147
    w: 0.0529131678186
---
header: 
  seq: 2731
  stamp: 
    secs: 1565217158
    nsecs: 991020917
  frame_id: "/stereo/left"
pose: 
  position: 
    x: 0.286165064136
    y: -0.0197634597011
    z: 0.567867063143
  orientation: 
    x: -0.00987621387872
    y: 0.998471855038
    z: 0.00898189320026
    w: 0.0536259330059
---
header: 
  seq: 2732
  stamp: 
    secs: 1565217159
    nsecs: 570993185
  frame_id: "/stereo/left"
pose: 
  position: 
    x: 0.280842442435
    y: -0.0177500475185
    z: 0.556105881682
  orientation: 
    x: -0.0112817496121
    y: 0.997791604511
    z: -0.00364679510295
    w: 0.0653554663183
---
header: 
  seq: 2733
  stamp: 
    secs: 1565217160
    nsecs: 728866577
  frame_id: "/stereo/left"
pose: 
  position: 
    x: 0.287394733192
    y: -0.0199955778738
    z: 0.570328279304
  orientation: 
    x: -0.00833302000112
    y: 0.998654183047
    z: 0.0125836052987
    w: 0.0496189110979
---
header: 
  seq: 2734
  stamp: 
    secs: 1565217161
    nsecs: 301635265
  frame_id: "/stereo/left"
pose: 
  position: 
    x: 0.281100124427
    y: -0.0178300825453
    z: 0.556902292201
  orientation: 
    x: -0.0117131056403
    y: 0.997766939762
    z: -0.00303781899546
    w: 0.0656864425076
---
header: 
  seq: 2735
  stamp: 
    secs: 1565217161
    nsecs: 943779230
  frame_id: "/stereo/left"
pose: 
  position: 
    x: 0.281016413333
    y: -0.0176694288611
    z: 0.556534963573
  orientation: 
    x: -0.0118590965627
    y: 0.997771605866
    z: -0.00538028963069
    w: 0.0654388022516
---
header: 
  seq: 2736
  stamp: 
    secs: 1565217162
    nsecs: 507222414
  frame_id: "/stereo/left"
pose: 
  position: 
    x: 0.280271128076
    y: -0.0175692513205
    z: 0.554844484342
  orientation: 
    x: -0.0123868712217
    y: 0.997759120183
    z: -0.00852626101553
    w: 0.0651966746568
---
header: 
  seq: 2737
  stamp: 
    secs: 1565217163
    nsecs: 690202951
  frame_id: "/stereo/left"
pose: 
  position: 
    x: 0.280579143699
    y: -0.0176352654386
    z: 0.555508170577
  orientation: 
    x: -0.012116397202
    y: 0.997789821684
    z: -0.00742511007508
    w: 0.0649117277731
---
header: 
  seq: 2738
  stamp: 
    secs: 1565217164
    nsecs: 261459350
  frame_id: "/stereo/left"
pose: 
  position: 
    x: 0.280711922035
    y: -0.0176713089798
    z: 0.555703771026
  orientation: 
    x: -0.0117181122396
    y: 0.997864195847
    z: -0.00536341587631
    w: 0.0640387871768
---
header: 
  seq: 2739
  stamp: 
    secs: 1565217164
    nsecs: 827388525
  frame_id: "/stereo/left"
pose: 
  position: 
    x: 0.287161304204
    y: -0.0199020054834
    z: 0.56986433948
  orientation: 
    x: -0.00915770046663
    y: 0.998620910501
    z: 0.0105956651006
    w: 0.0505978805288
---
header: 
  seq: 2740
  stamp: 
    secs: 1565217165
    nsecs: 425273418
  frame_id: "/stereo/left"
pose: 
  position: 
    x: 0.283733136578
    y: -0.0190349840898
    z: 0.562972428764
  orientation: 
    x: -0.0133424170504
    y: 0.998093666219
    z: 0.00109583461065
    w: 0.0602479253314
---
header: 
  seq: 2741
  stamp: 
    secs: 1565217166
    nsecs: 563893079
  frame_id: "/stereo/left"
pose: 
  position: 
    x: 0.27929793614
    y: -0.0164790248333
    z: 0.551369569773
  orientation: 
    x: -0.00546182541378
    y: 0.997877743714
    z: -0.0177865026883
    w: 0.0624004598112
---
header: 
  seq: 2742
  stamp: 
    secs: 1565217167
    nsecs: 205194950
  frame_id: "/stereo/left"
pose: 
  position: 
    x: 0.286803833112
    y: -0.0199075741035
    z: 0.569099284292
  orientation: 
    x: -0.0103014493731
    y: 0.998566123849
    z: 0.00966295203643
    w: 0.0516352960636
---
header: 
  seq: 2743
  stamp: 
    secs: 1565217167
    nsecs: 771431446
  frame_id: "/stereo/left"
pose: 
  position: 
    x: 0.287066896867
    y: -0.0199924433615
    z: 0.569766680371
  orientation: 
    x: -0.0105363282974
    y: 0.998699464685
    z: 0.00911171348506
    w: 0.0490442830631
---
header: 
  seq: 2744
  stamp: 
    secs: 1565217168
    nsecs: 346819400
  frame_id: "/stereo/left"
pose: 
  position: 
    x: 0.286320909697
    y: -0.0198147375193
    z: 0.568342569573
  orientation: 
    x: -0.0115213473101
    y: 0.998471662606
    z: 0.00552233316937
    w: 0.0537689628378
---
header: 
  seq: 2745
  stamp: 
    secs: 1565217169
    nsecs: 519245624
  frame_id: "/stereo/left"
pose: 
  position: 
    x: 0.280701061397
    y: -0.0178064350804
    z: 0.556026085782
  orientation: 
    x: -0.0129259675813
    y: 0.997830365287
    z: -0.00641798289943
    w: 0.0642362122922
---
header: 
  seq: 2746
  stamp: 
    secs: 1565217170
    nsecs:  92172145
  frame_id: "/stereo/left"
pose: 
  position: 
    x: 0.287511434736
    y: -0.0199862678172
    z: 0.57084791593
  orientation: 
    x: -0.0113502594246
    y: 0.998839713373
    z: 0.00874188814374
    w: 0.0459780164049
---
header: 
  seq: 2747
  stamp: 
    secs: 1565217170
    nsecs: 693214654
  frame_id: "/stereo/left"
pose: 
  position: 
    x: 0.287556559927
    y: -0.0196898703847
    z: 0.570906985023
  orientation: 
    x: -0.0118477349625
    y: 0.998897261935
    z: 0.00517979346954
    w: 0.0451338123209
---
header: 
  seq: 2748
  stamp: 
    secs: 1565217171
    nsecs: 268294334
  frame_id: "/stereo/left"
pose: 
  position: 
    x: 0.287103395737
    y: -0.0200024285185
    z: 0.569761251823
  orientation: 
    x: -0.0107782059035
    y: 0.998722991494
    z: 0.00905904886224
    w: 0.0485195854568
---
header: 
  seq: 2749
  stamp: 
    secs: 1565217172
    nsecs: 424339056
  frame_id: "/stereo/left"
pose: 
  position: 
    x: 0.286936389538
    y: -0.0199956357844
    z: 0.569707013513
  orientation: 
    x: -0.0109423082992
    y: 0.998604165976
    z: 0.00853628179598
    w: 0.0509619218392
---
header: 
  seq: 2750
  stamp: 
    secs: 1565217173
    nsecs:   1345396
  frame_id: "/stereo/left"
pose: 
  position: 
    x: 0.28687014132
    y: -0.0199891544509
    z: 0.569429282984
  orientation: 
    x: -0.0107241199417
    y: 0.998645628679
    z: 0.00882387170866
    w: 0.0501402120101
---
header: 
  seq: 2751
  stamp: 
    secs: 1565217173
    nsecs: 576966047
  frame_id: "/stereo/left"
pose: 
  position: 
    x: 0.284151995896
    y: -0.0195167886336
    z: 0.564233045158
  orientation: 
    x: -0.0139101845734
    y: 0.998109590863
    z: 0.00227485792579
    w: 0.0598212037157
---
header: 
  seq: 2752
  stamp: 
    secs: 1565217174
    nsecs: 212066411
  frame_id: "/stereo/left"
pose: 
  position: 
    x: 0.287469861077
    y: -0.0200861129833
    z: 0.570832981087
  orientation: 
    x: -0.00998501563506
    y: 0.998729230563
    z: 0.00987392573328
    w: 0.0484017465827
---
header: 
  seq: 2753
  stamp: 
    secs: 1565217175
    nsecs: 347758769
  frame_id: "/stereo/left"
pose: 
  position: 
    x: 0.286414191906
    y: -0.0199237108374
    z: 0.568615590803
  orientation: 
    x: -0.0118933102538
    y: 0.998536359446
    z: 0.00562690267538
    w: 0.0524597560212
---
header: 
  seq: 2754
  stamp: 
    secs: 1565217175
    nsecs: 958349704
  frame_id: "/stereo/left"
pose: 
  position: 
    x: 0.280979499666
    y: -0.0178997761002
    z: 0.556685760778
  orientation: 
    x: -0.0145661498008
    y: 0.997743166082
    z: -0.00726889305626
    w: 0.0651426512457
---
header: 
  seq: 2755
  stamp: 
    secs: 1565217176
    nsecs: 536871194
  frame_id: "/stereo/left"
pose: 
  position: 
    x: 0.281088161118
    y: -0.0179188455302
    z: 0.557002431228
  orientation: 
    x: -0.0133329304064
    y: 0.997937255474
    z: -0.00573165701382
    w: 0.062534911942
---
header: 
  seq: 2756
  stamp: 
    secs: 1565217177
    nsecs: 100820302
  frame_id: "/stereo/left"
pose: 
  position: 
    x: 0.286718297446
    y: -0.0200588324228
    z: 0.569232678917
  orientation: 
    x: -0.0105746362091
    y: 0.998629470032
    z: 0.00904148530996
    w: 0.0504540404307
---
header: 
  seq: 2757
  stamp: 
    secs: 1565217178
    nsecs: 316780567
  frame_id: "/stereo/left"
pose: 
  position: 
    x: 0.286865089648
    y: -0.0200641856263
    z: 0.569305168759
  orientation: 
    x: -0.0104527999635
    y: 0.998620678232
    z: 0.0112535035066
    w: 0.0502079539431
---
header: 
  seq: 2758
  stamp: 
    secs: 1565217178
    nsecs: 886735439
  frame_id: "/stereo/left"
pose: 
  position: 
    x: 0.284222121587
    y: -0.0192741363182
    z: 0.564090397213
  orientation: 
    x: -0.0131327563
    y: 0.998228181454
    z: 0.00139744760708
    w: 0.0580178903801
---
header: 
  seq: 2759
  stamp: 
    secs: 1565217179
    nsecs: 503027677
  frame_id: "/stereo/left"
pose: 
  position: 
    x: 0.280665307037
    y: -0.017769544019
    z: 0.555854160348
  orientation: 
    x: -0.0135593406434
    y: 0.997877643135
    z: -0.00727196526523
    w: 0.0632729968726
---
header: 
  seq: 2760
  stamp: 
    secs: 1565217180
    nsecs:  62012672
  frame_id: "/stereo/left"
pose: 
  position: 
    x: 0.28733899608
    y: -0.0200705582582
    z: 0.570153503187
  orientation: 
    x: -0.00867672758756
    y: 0.998665168679
    z: 0.012896253187
    w: 0.0492573032134
---
header: 
  seq: 2761
  stamp: 
    secs: 1565217181
    nsecs: 231660366
  frame_id: "/stereo/left"
pose: 
  position: 
    x: 0.280941428857
    y: -0.0178725129326
    z: 0.556554580847
  orientation: 
    x: -0.0121545637893
    y: 0.997811881955
    z: -0.00420823456379
    w: 0.064853724414
---
header: 
  seq: 2762
  stamp: 
    secs: 1565217181
    nsecs: 797494411
  frame_id: "/stereo/left"
pose: 
  position: 
    x: 0.280661464699
    y: -0.017784406769
    z: 0.555897079904
  orientation: 
    x: -0.0132500978534
    y: 0.997753465193
    z: -0.00703325467604
    w: 0.0652915839203
---
