header: 
  seq: 4349
  stamp: 
    secs: 1565218368
    nsecs: 470236063
  frame_id: "/stereo/left"
pose: 
  position: 
    x: 0.285751769413
    y: -0.00420172420178
    z: 0.475728003628
  orientation: 
    x: -0.00166332583571
    y: 0.999231382611
    z: 0.0229857143961
    w: -0.0317101606262
---
header: 
  seq: 4350
  stamp: 
    secs: 1565218369
    nsecs:  87095737
  frame_id: "/stereo/left"
pose: 
  position: 
    x: 0.283799788607
    y: -0.00356392255218
    z: 0.472649013719
  orientation: 
    x: -0.000654441142105
    y: 0.999455172021
    z: 0.0258111955062
    w: -0.0205599857302
---
header: 
  seq: 4351
  stamp: 
    secs: 1565218369
    nsecs: 668838739
  frame_id: "/stereo/left"
pose: 
  position: 
    x: 0.283413700042
    y: -0.00360562264505
    z: 0.472077247479
  orientation: 
    x: -0.00063993345986
    y: 0.999473788844
    z: 0.0259037301819
    w: -0.0195123720271
---
header: 
  seq: 4352
  stamp: 
    secs: 1565218370
    nsecs: 248254060
  frame_id: "/stereo/left"
pose: 
  position: 
    x: 0.281354117697
    y: -0.0029363345394
    z: 0.469211092168
  orientation: 
    x: 0.00021038669374
    y: 0.9996223293
    z: 0.0244270849025
    w: -0.0125885672883
---
header: 
  seq: 4353
  stamp: 
    secs: 1565218371
    nsecs: 407237291
  frame_id: "/stereo/left"
pose: 
  position: 
    x: 0.284643409917
    y: -0.00389621161503
    z: 0.474329078641
  orientation: 
    x: 0.000829777776359
    y: 0.999295515272
    z: 0.0313888161323
    w: -0.0205554578401
---
header: 
  seq: 4354
  stamp: 
    secs: 1565218371
    nsecs: 985745668
  frame_id: "/stereo/left"
pose: 
  position: 
    x: 0.284076305475
    y: -0.00371785168095
    z: 0.473187775303
  orientation: 
    x: 0.000628071060043
    y: 0.999420731861
    z: 0.028417813818
    w: -0.0187145427924
---
header: 
  seq: 4355
  stamp: 
    secs: 1565218372
    nsecs: 557373285
  frame_id: "/stereo/left"
pose: 
  position: 
    x: 0.28141556211
    y: -0.00301226780739
    z: 0.469297510706
  orientation: 
    x: 0.000126813377953
    y: 0.999622008305
    z: 0.0255403367272
    w: -0.0101742631321
---
header: 
  seq: 4356
  stamp: 
    secs: 1565218373
    nsecs: 203938484
  frame_id: "/stereo/left"
pose: 
  position: 
    x: 0.285364489225
    y: -0.00400148847756
    z: 0.475347870173
  orientation: 
    x: -0.000880487251767
    y: 0.999340402997
    z: 0.0267899026642
    w: -0.0245007100873
---
header: 
  seq: 4357
  stamp: 
    secs: 1565218374
    nsecs: 345247983
  frame_id: "/stereo/left"
pose: 
  position: 
    x: 0.283818104436
    y: -0.00359821938211
    z: 0.47277545583
  orientation: 
    x: -0.000566886581661
    y: 0.999440056377
    z: 0.0258079627436
    w: -0.0212885276104
---
header: 
  seq: 4358
  stamp: 
    secs: 1565218374
    nsecs: 950018644
  frame_id: "/stereo/left"
pose: 
  position: 
    x: 0.275875123544
    y: -0.00285121980228
    z: 0.464621639772
  orientation: 
    x: -0.0137351929545
    y: -0.998397733147
    z: -0.0463311451995
    w: 0.0294403788333
---
header: 
  seq: 4359
  stamp: 
    secs: 1565218375
    nsecs: 530060529
  frame_id: "/stereo/left"
pose: 
  position: 
    x: 0.275481346899
    y: -0.00283315286097
    z: 0.462801142454
  orientation: 
    x: -0.0140713979951
    y: -0.998639157106
    z: -0.0407015863735
    w: 0.0294144610607
---
header: 
  seq: 4360
  stamp: 
    secs: 1565218376
    nsecs:  95483779
  frame_id: "/stereo/left"
pose: 
  position: 
    x: 0.276825761963
    y: -0.00313982932794
    z: 0.465947755489
  orientation: 
    x: -0.0179738857541
    y: -0.997853122471
    z: -0.0545019479554
    w: 0.0315534954358
---
header: 
  seq: 4361
  stamp: 
    secs: 1565218377
    nsecs: 329974889
  frame_id: "/stereo/left"
pose: 
  position: 
    x: 0.277234203937
    y: -0.00281266097559
    z: 0.464350685579
  orientation: 
    x: -0.0139479905298
    y: -0.996851827096
    z: -0.0344807231354
    w: 0.070021197566
---
header: 
  seq: 4362
  stamp: 
    secs: 1565218377
    nsecs: 922153234
  frame_id: "/stereo/left"
pose: 
  position: 
    x: 0.286328644106
    y: -0.0042600627037
    z: 0.476840592363
  orientation: 
    x: 0.00123359559252
    y: 0.999046325596
    z: 0.0298083628068
    w: -0.0318807004538
---
header: 
  seq: 4363
  stamp: 
    secs: 1565218378
    nsecs: 515804052
  frame_id: "/stereo/left"
pose: 
  position: 
    x: 0.277259318167
    y: -0.00310979390335
    z: 0.464673899567
  orientation: 
    x: -0.0135952027196
    y: -0.997042339036
    z: -0.037730471039
    w: 0.0655603248042
---
header: 
  seq: 4364
  stamp: 
    secs: 1565218379
    nsecs:  95031023
  frame_id: "/stereo/left"
pose: 
  position: 
    x: 0.277045858754
    y: -0.00276572452419
    z: 0.464275365108
  orientation: 
    x: -0.0130250556389
    y: -0.996979056767
    z: -0.0349043190418
    w: 0.0681527461338
---
header: 
  seq: 4365
  stamp: 
    secs: 1565218380
    nsecs: 302372217
  frame_id: "/stereo/left"
pose: 
  position: 
    x: 0.284071333272
    y: -0.00377747193252
    z: 0.473105266388
  orientation: 
    x: 0.00101082405467
    y: 0.999464439184
    z: 0.0283809773432
    w: -0.016258326051
---
header: 
  seq: 4366
  stamp: 
    secs: 1565218380
    nsecs: 877883195
  frame_id: "/stereo/left"
pose: 
  position: 
    x: 0.286015417111
    y: -0.00404520565816
    z: 0.476087771593
  orientation: 
    x: 0.000569199944331
    y: 0.999278542473
    z: 0.0276563515387
    w: -0.0260230048903
---
header: 
  seq: 4367
  stamp: 
    secs: 1565218381
    nsecs: 450632095
  frame_id: "/stereo/left"
pose: 
  position: 
    x: 0.281928898186
    y: -0.00289504086534
    z: 0.469705994782
  orientation: 
    x: 0.00084851834674
    y: 0.999659191696
    z: 0.0260889333539
    w: 0.000384748847658
---
header: 
  seq: 4368
  stamp: 
    secs: 1565218382
    nsecs: 623647928
  frame_id: "/stereo/left"
pose: 
  position: 
    x: 0.276017255266
    y: 1.60093627217e-05
    z: 0.460954160251
  orientation: 
    x: -0.00692016935567
    y: 0.998677907072
    z: 0.0222208976069
    w: 0.0458342763976
---
header: 
  seq: 4369
  stamp: 
    secs: 1565218383
    nsecs: 191682815
  frame_id: "/stereo/left"
pose: 
  position: 
    x: 0.289181262281
    y: -0.00418435472143
    z: 0.481498307612
  orientation: 
    x: 0.00241528857251
    y: 0.999109770951
    z: 0.0408143043854
    w: -0.0103934849611
---
header: 
  seq: 4370
  stamp: 
    secs: 1565218383
    nsecs: 835891723
  frame_id: "/stereo/left"
pose: 
  position: 
    x: 0.288317064408
    y: -0.00393962176546
    z: 0.479812836921
  orientation: 
    x: 0.000492224193332
    y: 0.99932795043
    z: 0.0366274101923
    w: -0.00135573858967
---
header: 
  seq: 4371
  stamp: 
    secs: 1565218384
    nsecs: 971977233
  frame_id: "/stereo/left"
pose: 
  position: 
    x: 0.286164501673
    y: -0.00330927125258
    z: 0.476214706688
  orientation: 
    x: 0.00180922739039
    y: 0.999356749347
    z: 0.0353110050499
    w: 0.00599559453903
---
header: 
  seq: 4372
  stamp: 
    secs: 1565218385
    nsecs: 585866689
  frame_id: "/stereo/left"
pose: 
  position: 
    x: 0.268117306356
    y: 0.0019550554567
    z: 0.449934840675
  orientation: 
    x: -0.0189496162467
    y: 0.998314710673
    z: 0.00955913660495
    w: 0.0540117895067
---
header: 
  seq: 4373
  stamp: 
    secs: 1565218386
    nsecs: 155941486
  frame_id: "/stereo/left"
pose: 
  position: 
    x: 0.27779243519
    y: -0.000471641802526
    z: 0.464010204797
  orientation: 
    x: -0.00713465595176
    y: 0.998615504906
    z: 0.0251172418092
    w: 0.045665021739
---
header: 
  seq: 4374
  stamp: 
    secs: 1565218386
    nsecs: 724702358
  frame_id: "/stereo/left"
pose: 
  position: 
    x: 0.288472329222
    y: -0.00397480678763
    z: 0.480198970842
  orientation: 
    x: 0.00211377422734
    y: 0.999277236205
    z: 0.0376056305831
    w: -0.00513358649629
---
header: 
  seq: 4375
  stamp: 
    secs: 1565218387
    nsecs: 897526979
  frame_id: "/stereo/left"
pose: 
  position: 
    x: 0.276189337289
    y: -0.000289355361361
    z: 0.46165557709
  orientation: 
    x: -0.00873601798082
    y: 0.998699513176
    z: 0.0225797215272
    w: 0.0448678119402
---
header: 
  seq: 4376
  stamp: 
    secs: 1565218388
    nsecs: 463232278
  frame_id: "/stereo/left"
pose: 
  position: 
    x: 0.277105978242
    y: -0.00045678253366
    z: 0.46271836711
  orientation: 
    x: -0.00647753149207
    y: 0.998854377815
    z: 0.0235524347657
    w: 0.0411491958946
---
header: 
  seq: 4377
  stamp: 
    secs: 1565218389
    nsecs:  64779520
  frame_id: "/stereo/left"
pose: 
  position: 
    x: 0.289458451763
    y: -0.00430075489924
    z: 0.481839976611
  orientation: 
    x: 0.00505894188807
    y: 0.998910903861
    z: 0.0438658604574
    w: -0.0150731396991
---
header: 
  seq: 4378
  stamp: 
    secs: 1565218389
    nsecs: 634959220
  frame_id: "/stereo/left"
pose: 
  position: 
    x: 0.288739033545
    y: -0.00385280493465
    z: 0.480259255036
  orientation: 
    x: 0.0018896196703
    y: 0.999207758276
    z: 0.0392970860083
    w: -0.00600201373182
---
header: 
  seq: 4379
  stamp: 
    secs: 1565218390
    nsecs: 851986885
  frame_id: "/stereo/left"
pose: 
  position: 
    x: 0.276277838507
    y: -0.000188673980088
    z: 0.461532832622
  orientation: 
    x: -0.00915037161832
    y: 0.998735961132
    z: 0.020623407658
    w: 0.0449157622328
---
header: 
  seq: 4380
  stamp: 
    secs: 1565218391
    nsecs: 436955928
  frame_id: "/stereo/left"
pose: 
  position: 
    x: 0.286208774079
    y: -0.00325920386608
    z: 0.476190969303
  orientation: 
    x: 0.000570799061555
    y: 0.999368043448
    z: 0.0353749660074
    w: 0.00343506964736
---
header: 
  seq: 4381
  stamp: 
    secs: 1565218392
    nsecs:   3516912
  frame_id: "/stereo/left"
pose: 
  position: 
    x: 0.288582793498
    y: -0.0041163175601
    z: 0.480735840877
  orientation: 
    x: 0.00243204334318
    y: 0.999166210684
    z: 0.040280702393
    w: -0.006199484498
---
header: 
  seq: 4382
  stamp: 
    secs: 1565218392
    nsecs: 612158536
  frame_id: "/stereo/left"
pose: 
  position: 
    x: 0.288286742337
    y: -0.00398810273849
    z: 0.480172533823
  orientation: 
    x: 0.00126966303553
    y: 0.999256317795
    z: 0.0381151955009
    w: -0.00569483747149
---
header: 
  seq: 4383
  stamp: 
    secs: 1565218393
    nsecs: 752199411
  frame_id: "/stereo/left"
pose: 
  position: 
    x: 0.27612857632
    y: -0.000301046391596
    z: 0.461457065158
  orientation: 
    x: -0.00733918654134
    y: 0.998759667043
    z: 0.0230466746599
    w: 0.043521427089
---
header: 
  seq: 4384
  stamp: 
    secs: 1565218394
    nsecs: 390112876
  frame_id: "/stereo/left"
pose: 
  position: 
    x: 0.289105134611
    y: -0.00408844772454
    z: 0.481542083811
  orientation: 
    x: 0.00289741275881
    y: 0.999108402505
    z: 0.0406775308356
    w: -0.0109244464072
---
header: 
  seq: 4385
  stamp: 
    secs: 1565218394
    nsecs: 961605548
  frame_id: "/stereo/left"
pose: 
  position: 
    x: 0.289310988249
    y: -0.00418964778197
    z: 0.481962345439
  orientation: 
    x: 0.00502865001939
    y: 0.998882403609
    z: 0.0449180696054
    w: -0.0138211237735
---
header: 
  seq: 4386
  stamp: 
    secs: 1565218395
    nsecs: 541232824
  frame_id: "/stereo/left"
pose: 
  position: 
    x: 0.285382745303
    y: -0.00319211422797
    z: 0.475357577846
  orientation: 
    x: 0.00262522368938
    y: 0.999337674416
    z: 0.0362871978075
    w: 0.000748310048353
---
header: 
  seq: 4387
  stamp: 
    secs: 1565218396
    nsecs: 720531702
  frame_id: "/stereo/left"
pose: 
  position: 
    x: 0.288829601385
    y: -0.00419842023999
    z: 0.481308451571
  orientation: 
    x: 0.00468255127297
    y: 0.998976200263
    z: 0.0439253225644
    w: -0.00975659056502
---
header: 
  seq: 4388
  stamp: 
    secs: 1565218397
    nsecs: 293008804
  frame_id: "/stereo/left"
pose: 
  position: 
    x: 0.287790533655
    y: -0.00381535379538
    z: 0.479267582399
  orientation: 
    x: 0.00243706586192
    y: 0.999229177247
    z: 0.0372881147759
    w: -0.0120294865091
---
