header: 
  seq: 4627
  stamp: 
    secs: 1565218574
    nsecs: 906207323
  frame_id: "/stereo/left"
pose: 
  position: 
    x: 0.0843770515219
    y: 0.00960908074288
    z: 0.434050809313
  orientation: 
    x: 0.00464913615153
    y: 0.999382606004
    z: -0.0319735979282
    w: 0.013801499412
---
header: 
  seq: 4628
  stamp: 
    secs: 1565218575
    nsecs: 474562168
  frame_id: "/stereo/left"
pose: 
  position: 
    x: 0.0848841741276
    y: 0.00955592113525
    z: 0.434177135665
  orientation: 
    x: 0.00621214455268
    y: 0.999682496733
    z: -0.0180756102965
    w: 0.0164191137889
---
header: 
  seq: 4629
  stamp: 
    secs: 1565218576
    nsecs:  80690860
  frame_id: "/stereo/left"
pose: 
  position: 
    x: 0.0847998310627
    y: 0.00935063585357
    z: 0.43438554093
  orientation: 
    x: 0.00626121644604
    y: 0.999266765876
    z: -0.0374705039548
    w: 0.00476330949362
---
header: 
  seq: 4630
  stamp: 
    secs: 1565218576
    nsecs: 701382875
  frame_id: "/stereo/left"
pose: 
  position: 
    x: 0.0846604208999
    y: 0.00928429918765
    z: 0.433553674577
  orientation: 
    x: 0.00572253037491
    y: 0.999344945501
    z: -0.035239731971
    w: 0.0059240052652
---
header: 
  seq: 4631
  stamp: 
    secs: 1565218577
    nsecs: 828359842
  frame_id: "/stereo/left"
pose: 
  position: 
    x: 0.0843561679081
    y: 0.00958651310597
    z: 0.434018595112
  orientation: 
    x: 0.00438469806509
    y: 0.999400327235
    z: -0.0314619405173
    w: 0.0137806619868
---
header: 
  seq: 4632
  stamp: 
    secs: 1565218578
    nsecs: 427192211
  frame_id: "/stereo/left"
pose: 
  position: 
    x: 0.0848131114092
    y: 0.00918275756554
    z: 0.433182741012
  orientation: 
    x: 0.00521813351816
    y: 0.999376173285
    z: -0.0339250321789
    w: 0.00831429758854
---
header: 
  seq: 4633
  stamp: 
    secs: 1565218579
    nsecs:  13021707
  frame_id: "/stereo/left"
pose: 
  position: 
    x: 0.084844128008
    y: 0.00911061852397
    z: 0.433134300625
  orientation: 
    x: 0.0049320557805
    y: 0.999370397615
    z: -0.0344400074176
    w: 0.00695478869785
---
header: 
  seq: 4634
  stamp: 
    secs: 1565218579
    nsecs: 586534976
  frame_id: "/stereo/left"
pose: 
  position: 
    x: 0.0844779614171
    y: 0.00933288456177
    z: 0.433311111282
  orientation: 
    x: 0.00468745928
    y: 0.999383702299
    z: -0.0338794368748
    w: 0.00790107975411
---
header: 
  seq: 4635
  stamp: 
    secs: 1565218580
    nsecs: 802350282
  frame_id: "/stereo/left"
pose: 
  position: 
    x: 0.0844771559293
    y: 0.00938791825781
    z: 0.433389484404
  orientation: 
    x: 0.00479642216302
    y: 0.999394764734
    z: -0.0337825807774
    w: 0.00677021360537
---
header: 
  seq: 4636
  stamp: 
    secs: 1565218581
    nsecs: 386224985
  frame_id: "/stereo/left"
pose: 
  position: 
    x: 0.0843913296098
    y: 0.00962838058158
    z: 0.434216957642
  orientation: 
    x: -0.00455988934202
    y: -0.999370366618
    z: 0.0329633662224
    w: -0.0123082989047
---
header: 
  seq: 4637
  stamp: 
    secs: 1565218581
    nsecs: 986491203
  frame_id: "/stereo/left"
pose: 
  position: 
    x: 0.0846856562209
    y: 0.00923395861536
    z: 0.433526136342
  orientation: 
    x: 0.00595749767934
    y: 0.999392708903
    z: -0.0337968246628
    w: 0.00604121314036
---
header: 
  seq: 4638
  stamp: 
    secs: 1565218582
    nsecs: 548115730
  frame_id: "/stereo/left"
pose: 
  position: 
    x: 0.0845996540671
    y: 0.00925728867978
    z: 0.433288153555
  orientation: 
    x: 0.00556586474172
    y: 0.99933781572
    z: -0.035305542747
    w: 0.00681688143929
---
header: 
  seq: 4639
  stamp: 
    secs: 1565218583
    nsecs: 707201004
  frame_id: "/stereo/left"
pose: 
  position: 
    x: 0.0848230103413
    y: 0.00931634858115
    z: 0.434275861399
  orientation: 
    x: 0.00594832461268
    y: 0.99927362416
    z: -0.0373229621959
    w: 0.00488241586925
---
header: 
  seq: 4640
  stamp: 
    secs: 1565218584
    nsecs: 273145437
  frame_id: "/stereo/left"
pose: 
  position: 
    x: 0.0848296130166
    y: 0.00933823907211
    z: 0.434340019348
  orientation: 
    x: 0.00565222907634
    y: 0.999233293562
    z: -0.0384254901073
    w: 0.00493548912943
---
header: 
  seq: 4641
  stamp: 
    secs: 1565218584
    nsecs: 844035625
  frame_id: "/stereo/left"
pose: 
  position: 
    x: 0.0845130419169
    y: 0.00936943510826
    z: 0.433600012446
  orientation: 
    x: 0.00467234703299
    y: 0.999265135812
    z: -0.0371991592022
    w: 0.00797371176109
---
header: 
  seq: 4642
  stamp: 
    secs: 1565218585
    nsecs: 495230674
  frame_id: "/stereo/left"
pose: 
  position: 
    x: 0.084461818426
    y: 0.00966101576963
    z: 0.434476237347
  orientation: 
    x: 0.00435330645199
    y: 0.999262500568
    z: -0.0357889516208
    w: 0.0132156960683
---
header: 
  seq: 4643
  stamp: 
    secs: 1565218586
    nsecs: 635312795
  frame_id: "/stereo/left"
pose: 
  position: 
    x: 0.0845902237922
    y: 0.00920092518181
    z: 0.433429920912
  orientation: 
    x: 0.00512787707732
    y: 0.9992942889
    z: -0.0367030202847
    w: 0.00612514083242
---
header: 
  seq: 4644
  stamp: 
    secs: 1565218587
    nsecs: 241584777
  frame_id: "/stereo/left"
pose: 
  position: 
    x: 0.0844512201443
    y: 0.00956151390947
    z: 0.433825235854
  orientation: 
    x: 0.00435430828769
    y: 0.999468610769
    z: -0.0306012889906
    w: 0.01034877766
---
header: 
  seq: 4645
  stamp: 
    secs: 1565218587
    nsecs: 811455488
  frame_id: "/stereo/left"
pose: 
  position: 
    x: 0.0843938675709
    y: 0.00955412122433
    z: 0.433908291961
  orientation: 
    x: 0.00439341661939
    y: 0.999327541699
    z: -0.0337565847629
    w: 0.013625537715
---
header: 
  seq: 4646
  stamp: 
    secs: 1565218588
    nsecs: 382284879
  frame_id: "/stereo/left"
pose: 
  position: 
    x: 0.0847395960666
    y: 0.00916074130958
    z: 0.433026321357
  orientation: 
    x: 0.00503255068544
    y: 0.999344392803
    z: -0.0348785971174
    w: 0.00830309999645
---
header: 
  seq: 4647
  stamp: 
    secs: 1565218589
    nsecs: 560989856
  frame_id: "/stereo/left"
pose: 
  position: 
    x: 0.0846186183492
    y: 0.00928946540618
    z: 0.433542708636
  orientation: 
    x: 0.00579659366965
    y: 0.99933428238
    z: -0.0354684030497
    w: 0.0062756631194
---
header: 
  seq: 4648
  stamp: 
    secs: 1565218590
    nsecs: 140507221
  frame_id: "/stereo/left"
pose: 
  position: 
    x: 0.0845919383289
    y: 0.00927809200213
    z: 0.433374594921
  orientation: 
    x: 0.00562218577898
    y: 0.9993783284
    z: -0.0343473248639
    w: 0.00562219055152
---
header: 
  seq: 4649
  stamp: 
    secs: 1565218590
    nsecs: 709688186
  frame_id: "/stereo/left"
pose: 
  position: 
    x: 0.0844710552668
    y: 0.00935336879617
    z: 0.433375832879
  orientation: 
    x: 0.00442936606542
    y: 0.99934679524
    z: -0.0351194251792
    w: 0.0072793911522
---
header: 
  seq: 4650
  stamp: 
    secs: 1565218591
    nsecs: 364902973
  frame_id: "/stereo/left"
pose: 
  position: 
    x: 0.0844267515253
    y: 0.0095673060324
    z: 0.433657345606
  orientation: 
    x: 0.00425524184941
    y: 0.999450974273
    z: -0.0311086520654
    w: 0.0105780295184
---
header: 
  seq: 4651
  stamp: 
    secs: 1565218592
    nsecs: 522496461
  frame_id: "/stereo/left"
pose: 
  position: 
    x: 0.0843954520499
    y: 0.00955259478397
    z: 0.433818268427
  orientation: 
    x: 0.00441210831866
    y: 0.999427489299
    z: -0.0303433657441
    w: 0.0143005975293
---
header: 
  seq: 4652
  stamp: 
    secs: 1565218593
    nsecs: 182579755
  frame_id: "/stereo/left"
pose: 
  position: 
    x: 0.0848369315012
    y: 0.00918701365209
    z: 0.43329299465
  orientation: 
    x: 0.00535006129041
    y: 0.999407972694
    z: -0.0330493471712
    w: 0.00792600859753
---
header: 
  seq: 4653
  stamp: 
    secs: 1565218593
    nsecs: 745952129
  frame_id: "/stereo/left"
pose: 
  position: 
    x: 0.0848560879016
    y: 0.00916992286105
    z: 0.43291865751
  orientation: 
    x: 0.00555302611981
    y: 0.999420311973
    z: -0.0327547713009
    w: 0.00743833804044
---
header: 
  seq: 4654
  stamp: 
    secs: 1565218594
    nsecs: 325765848
  frame_id: "/stereo/left"
pose: 
  position: 
    x: 0.0845883474903
    y: 0.00935024998317
    z: 0.433346741028
  orientation: 
    x: 0.00407006484961
    y: 0.999355198488
    z: -0.0339665196928
    w: 0.0109040069699
---
header: 
  seq: 4655
  stamp: 
    secs: 1565218595
    nsecs: 511008739
  frame_id: "/stereo/left"
pose: 
  position: 
    x: 0.0848051381779
    y: 0.00927082276837
    z: 0.4335694821
  orientation: 
    x: 0.00518802716022
    y: 0.999364101487
    z: -0.0342491963208
    w: 0.00845396853172
---
header: 
  seq: 4656
  stamp: 
    secs: 1565218596
    nsecs:  89585781
  frame_id: "/stereo/left"
pose: 
  position: 
    x: 0.084799046537
    y: 0.00922931279119
    z: 0.433395546276
  orientation: 
    x: 0.00548517838665
    y: 0.999369928146
    z: -0.0341511696151
    w: 0.00795972043433
---
header: 
  seq: 4657
  stamp: 
    secs: 1565218596
    nsecs: 731227874
  frame_id: "/stereo/left"
pose: 
  position: 
    x: 0.0847701517087
    y: 0.0092232347498
    z: 0.433365845611
  orientation: 
    x: 0.0048790580737
    y: 0.999370827601
    z: -0.0342246353966
    w: 0.00792578477227
---
header: 
  seq: 4658
  stamp: 
    secs: 1565218597
    nsecs: 299005031
  frame_id: "/stereo/left"
pose: 
  position: 
    x: 0.0846497536127
    y: 0.00927307312275
    z: 0.433425946023
  orientation: 
    x: 0.00589611680683
    y: 0.999362821526
    z: -0.0346121868127
    w: 0.00641742019077
---
header: 
  seq: 4659
  stamp: 
    secs: 1565218598
    nsecs: 477915763
  frame_id: "/stereo/left"
pose: 
  position: 
    x: 0.0844024787819
    y: 0.00961969861951
    z: 0.434039343004
  orientation: 
    x: 0.00454138371428
    y: 0.999430062727
    z: -0.0301293818003
    w: 0.014530860392
---
header: 
  seq: 4660
  stamp: 
    secs: 1565218599
    nsecs:  42365312
  frame_id: "/stereo/left"
pose: 
  position: 
    x: 0.084577668098
    y: 0.00952125995887
    z: 0.433524844463
  orientation: 
    x: 0.00430771368198
    y: 0.999543790983
    z: -0.0261178932556
    w: 0.0145433545579
---
header: 
  seq: 4661
  stamp: 
    secs: 1565218599
    nsecs: 606983184
  frame_id: "/stereo/left"
pose: 
  position: 
    x: 0.084818232843
    y: 0.00922185277567
    z: 0.433195834087
  orientation: 
    x: 0.00500119963967
    y: 0.999344573433
    z: -0.0347152678729
    w: 0.00895889106007
---
header: 
  seq: 4662
  stamp: 
    secs: 1565218600
    nsecs: 269723415
  frame_id: "/stereo/left"
pose: 
  position: 
    x: 0.0845303330854
    y: 0.00934593450642
    z: 0.433616556289
  orientation: 
    x: 0.00460976626288
    y: 0.999262566039
    z: -0.0358980221006
    w: 0.0128220972478
---
header: 
  seq: 4663
  stamp: 
    secs: 1565218601
    nsecs: 420098543
  frame_id: "/stereo/left"
pose: 
  position: 
    x: 0.0844639647374
    y: 0.00938544323707
    z: 0.433336791574
  orientation: 
    x: 0.00442059540318
    y: 0.999371435375
    z: -0.0342602953283
    w: 0.0079639598201
---
header: 
  seq: 4664
  stamp: 
    secs: 1565218602
    nsecs:  40339708
  frame_id: "/stereo/left"
pose: 
  position: 
    x: 0.0844472843326
    y: 0.00967611461219
    z: 0.434473671451
  orientation: 
    x: -0.00494337762392
    y: -0.999326080257
    z: 0.0342195866193
    w: -0.0123275393689
---
header: 
  seq: 4665
  stamp: 
    secs: 1565218602
    nsecs: 608151674
  frame_id: "/stereo/left"
pose: 
  position: 
    x: 0.084386292349
    y: 0.00960314849133
    z: 0.434004587066
  orientation: 
    x: 0.00466547696979
    y: 0.999394026175
    z: -0.0317919749091
    w: 0.0133822307976
---
