header: 
  seq: 3234
  stamp: 
    secs: 1565217535
    nsecs:  96400737
  frame_id: "/stereo/left"
pose: 
  position: 
    x: 0.138376025393
    y: -0.00745278599181
    z: 0.528504427496
  orientation: 
    x: 0.00890710735429
    y: 0.999870695472
    z: 0.00367202779314
    w: 0.0128752470869
---
header: 
  seq: 3235
  stamp: 
    secs: 1565217535
    nsecs: 723935604
  frame_id: "/stereo/left"
pose: 
  position: 
    x: 0.138340285867
    y: -0.007422702415
    z: 0.528240297217
  orientation: 
    x: 0.00930922943725
    y: 0.999853653978
    z: 0.00326945261035
    w: 0.0139756772501
---
header: 
  seq: 3236
  stamp: 
    secs: 1565217536
    nsecs: 289578676
  frame_id: "/stereo/left"
pose: 
  position: 
    x: 0.137898798752
    y: -0.00725828859756
    z: 0.527615729256
  orientation: 
    x: 0.00859725335414
    y: 0.999548591522
    z: 0.000488038916945
    w: 0.0287830199739
---
header: 
  seq: 3237
  stamp: 
    secs: 1565217536
    nsecs: 934547901
  frame_id: "/stereo/left"
pose: 
  position: 
    x: 0.13788595803
    y: -0.00728713429493
    z: 0.527647276835
  orientation: 
    x: 0.00904075604863
    y: 0.999546319353
    z: 0.00117791295263
    w: 0.0287059700829
---
header: 
  seq: 3238
  stamp: 
    secs: 1565217538
    nsecs:  92004776
  frame_id: "/stereo/left"
pose: 
  position: 
    x: 0.13795936808
    y: -0.00728973652165
    z: 0.527718734447
  orientation: 
    x: 0.00895825610496
    y: 0.999584801022
    z: 0.00241601348201
    w: 0.0272788946226
---
header: 
  seq: 3239
  stamp: 
    secs: 1565217538
    nsecs: 687749862
  frame_id: "/stereo/left"
pose: 
  position: 
    x: 0.138454776791
    y: -0.00744094678589
    z: 0.528625620745
  orientation: 
    x: 0.00981391223786
    y: 0.999857422811
    z: 0.00629344022298
    w: 0.0122153095389
---
header: 
  seq: 3240
  stamp: 
    secs: 1565217539
    nsecs: 255011320
  frame_id: "/stereo/left"
pose: 
  position: 
    x: 0.138191971479
    y: -0.00743882943158
    z: 0.527809543205
  orientation: 
    x: 0.00934966039597
    y: 0.999719143731
    z: 0.00461545273989
    w: 0.0212818021721
---
header: 
  seq: 3241
  stamp: 
    secs: 1565217539
    nsecs: 833267927
  frame_id: "/stereo/left"
pose: 
  position: 
    x: 0.1380096504
    y: -0.00730237792635
    z: 0.527580774554
  orientation: 
    x: 0.00903954037884
    y: 0.999569357969
    z: 0.00402342851129
    w: 0.0276260265202
---
header: 
  seq: 3242
  stamp: 
    secs: 1565217541
    nsecs:  30637502
  frame_id: "/stereo/left"
pose: 
  position: 
    x: 0.138389780347
    y: -0.00745201688806
    z: 0.528499363705
  orientation: 
    x: 0.00935563079898
    y: 0.99983704502
    z: 0.00378034117364
    w: 0.0149687874817
---
header: 
  seq: 3243
  stamp: 
    secs: 1565217541
    nsecs: 615067243
  frame_id: "/stereo/left"
pose: 
  position: 
    x: 0.137987289035
    y: -0.00727333060014
    z: 0.527911379194
  orientation: 
    x: 0.00945407963824
    y: 0.99953807603
    z: 0.00215733262645
    w: 0.028802792585
---
header: 
  seq: 3244
  stamp: 
    secs: 1565217542
    nsecs: 221991539
  frame_id: "/stereo/left"
pose: 
  position: 
    x: 0.138607022216
    y: -0.00748511988511
    z: 0.529071106897
  orientation: 
    x: 0.00979822249991
    y: 0.99987672617
    z: 0.00653984337508
    w: 0.0103806429208
---
header: 
  seq: 3245
  stamp: 
    secs: 1565217542
    nsecs: 796898365
  frame_id: "/stereo/left"
pose: 
  position: 
    x: 0.13864287378
    y: -0.00741669562394
    z: 0.52926928148
  orientation: 
    x: 0.0107330234439
    y: 0.999867159066
    z: 0.00814079211532
    w: 0.00917572517505
---
header: 
  seq: 3246
  stamp: 
    secs: 1565217543
    nsecs: 947453022
  frame_id: "/stereo/left"
pose: 
  position: 
    x: 0.138014491605
    y: -0.00729705266587
    z: 0.528083416707
  orientation: 
    x: 0.00919477299731
    y: 0.999543811151
    z: 0.00156516041139
    w: 0.0287258770642
---
header: 
  seq: 3247
  stamp: 
    secs: 1565217544
    nsecs: 508687496
  frame_id: "/stereo/left"
pose: 
  position: 
    x: 0.13828297989
    y: -0.00734365532293
    z: 0.528516016581
  orientation: 
    x: 0.00997749863164
    y: 0.999501468444
    z: 0.00432912855457
    w: 0.0296398843839
---
header: 
  seq: 3248
  stamp: 
    secs: 1565217545
    nsecs:  78238010
  frame_id: "/stereo/left"
pose: 
  position: 
    x: 0.138422086031
    y: -0.00740980332132
    z: 0.528685727752
  orientation: 
    x: 0.00803522615085
    y: 0.999897687632
    z: 0.001487959956
    w: 0.0117403314896
---
header: 
  seq: 3249
  stamp: 
    secs: 1565217545
    nsecs: 663762569
  frame_id: "/stereo/left"
pose: 
  position: 
    x: 0.138254302779
    y: -0.00743609363985
    z: 0.528282364877
  orientation: 
    x: 0.00904998017806
    y: 0.999746658876
    z: 0.00325894994097
    w: 0.020349328502
---
header: 
  seq: 3250
  stamp: 
    secs: 1565217546
    nsecs: 792264938
  frame_id: "/stereo/left"
pose: 
  position: 
    x: 0.138204202552
    y: -0.00736071264728
    z: 0.528158967412
  orientation: 
    x: 0.0104770943567
    y: 0.999494762752
    z: 0.00807688158657
    w: 0.0289000641769
---
header: 
  seq: 3251
  stamp: 
    secs: 1565217547
    nsecs: 435378074
  frame_id: "/stereo/left"
pose: 
  position: 
    x: 0.138517461156
    y: -0.0074436306974
    z: 0.528784717589
  orientation: 
    x: 0.00954181177668
    y: 0.999873249239
    z: 0.00540985345604
    w: 0.0115400507014
---
header: 
  seq: 3252
  stamp: 
    secs: 1565217548
    nsecs:   5718469
  frame_id: "/stereo/left"
pose: 
  position: 
    x: 0.138686323821
    y: -0.00739079885089
    z: 0.529187568195
  orientation: 
    x: 0.010257147692
    y: 0.999868353216
    z: 0.00658748886458
    w: 0.0107085082086
---
header: 
  seq: 3253
  stamp: 
    secs: 1565217548
    nsecs: 584559440
  frame_id: "/stereo/left"
pose: 
  position: 
    x: 0.138655629721
    y: -0.00743186287277
    z: 0.528960683624
  orientation: 
    x: 0.00998668020063
    y: 0.999878292743
    z: 0.00713750224104
    w: 0.00962922539292
---
header: 
  seq: 3254
  stamp: 
    secs: 1565217549
    nsecs: 759485244
  frame_id: "/stereo/left"
pose: 
  position: 
    x: 0.138286601553
    y: -0.00729271352825
    z: 0.528677112095
  orientation: 
    x: 0.0101842597555
    y: 0.999581406053
    z: 0.00490842524739
    w: 0.0266308259081
---
header: 
  seq: 3255
  stamp: 
    secs: 1565217550
    nsecs: 327846050
  frame_id: "/stereo/left"
pose: 
  position: 
    x: 0.138440809326
    y: -0.00742659972813
    z: 0.528691848451
  orientation: 
    x: 0.00925947830177
    y: 0.999795813036
    z: 0.00353495385606
    w: 0.0176096109848
---
header: 
  seq: 3256
  stamp: 
    secs: 1565217550
    nsecs: 922038078
  frame_id: "/stereo/left"
pose: 
  position: 
    x: 0.137947080628
    y: -0.00726885980083
    z: 0.527694360087
  orientation: 
    x: 0.00884279992507
    y: 0.999543541594
    z: 0.0019839144898
    w: 0.0288197403058
---
header: 
  seq: 3257
  stamp: 
    secs: 1565217551
    nsecs: 488891601
  frame_id: "/stereo/left"
pose: 
  position: 
    x: 0.138278123246
    y: -0.00738514558333
    z: 0.52842417471
  orientation: 
    x: 0.00985758114471
    y: 0.999631031988
    z: 0.00518179595739
    w: 0.0247745226094
---
header: 
  seq: 3258
  stamp: 
    secs: 1565217552
    nsecs: 687337875
  frame_id: "/stereo/left"
pose: 
  position: 
    x: 0.137906656729
    y: -0.00725960649296
    z: 0.52780512032
  orientation: 
    x: 0.0086443513349
    y: 0.999567182052
    z: 0.000610531027015
    w: 0.0281131820868
---
header: 
  seq: 3259
  stamp: 
    secs: 1565217553
    nsecs: 251736402
  frame_id: "/stereo/left"
pose: 
  position: 
    x: 0.138029644266
    y: -0.00722271020758
    z: 0.528284502744
  orientation: 
    x: 0.00893899668065
    y: 0.999561412912
    z: 0.000143467496487
    w: 0.0282321726699
---
header: 
  seq: 3260
  stamp: 
    secs: 1565217553
    nsecs: 830466747
  frame_id: "/stereo/left"
pose: 
  position: 
    x: 0.138365055839
    y: -0.00738798424854
    z: 0.528714627514
  orientation: 
    x: 0.0104936637331
    y: 0.999598013255
    z: 0.00537983615924
    w: 0.0257827904119
---
header: 
  seq: 3261
  stamp: 
    secs: 1565217555
    nsecs:   9503126
  frame_id: "/stereo/left"
pose: 
  position: 
    x: 0.138521806324
    y: -0.00747104544328
    z: 0.528938714535
  orientation: 
    x: 0.00956558148816
    y: 0.999864086812
    z: 0.00564129363353
    w: 0.0121853748531
---
header: 
  seq: 3262
  stamp: 
    secs: 1565217555
    nsecs: 581159353
  frame_id: "/stereo/left"
pose: 
  position: 
    x: 0.138432079634
    y: -0.00745594235148
    z: 0.528690642896
  orientation: 
    x: 0.00955100585376
    y: 0.999863535679
    z: 0.00530374367632
    w: 0.0123918767806
---
header: 
  seq: 3263
  stamp: 
    secs: 1565217556
    nsecs: 168381452
  frame_id: "/stereo/left"
pose: 
  position: 
    x: 0.138011800346
    y: -0.0073278849716
    z: 0.527840248882
  orientation: 
    x: 0.00914337460231
    y: 0.999593939408
    z: 0.00348881820331
    w: 0.0267615983596
---
header: 
  seq: 3264
  stamp: 
    secs: 1565217557
    nsecs: 298994779
  frame_id: "/stereo/left"
pose: 
  position: 
    x: 0.138613454553
    y: -0.00741059729581
    z: 0.529000571317
  orientation: 
    x: 0.0102580102719
    y: 0.99987766162
    z: 0.0064450521781
    w: 0.00989425698432
---
header: 
  seq: 3265
  stamp: 
    secs: 1565217557
    nsecs: 944691896
  frame_id: "/stereo/left"
pose: 
  position: 
    x: 0.138300914065
    y: -0.00744336790124
    z: 0.528361246259
  orientation: 
    x: 0.00942881436461
    y: 0.999741698017
    z: 0.00500331172713
    w: 0.0200649340396
---
header: 
  seq: 3266
  stamp: 
    secs: 1565217558
    nsecs: 506209850
  frame_id: "/stereo/left"
pose: 
  position: 
    x: 0.138665829142
    y: -0.00742452280413
    z: 0.529151954356
  orientation: 
    x: 0.0106077257411
    y: 0.999860857277
    z: 0.00755614730759
    w: 0.0104233812675
---
header: 
  seq: 3267
  stamp: 
    secs: 1565217559
    nsecs:  90562820
  frame_id: "/stereo/left"
pose: 
  position: 
    x: 0.138359269203
    y: -0.00745417497195
    z: 0.528439299847
  orientation: 
    x: 0.00955364639652
    y: 0.999724778631
    z: 0.00564354158475
    w: 0.0206699122004
---
header: 
  seq: 3268
  stamp: 
    secs: 1565217560
    nsecs: 267667770
  frame_id: "/stereo/left"
pose: 
  position: 
    x: 0.137945838456
    y: -0.00720490545783
    z: 0.528046139558
  orientation: 
    x: 0.00848771163865
    y: 0.999573071321
    z: -0.00156608243035
    w: 0.0279138178481
---
header: 
  seq: 3269
  stamp: 
    secs: 1565217560
    nsecs: 850877523
  frame_id: "/stereo/left"
pose: 
  position: 
    x: 0.138706194986
    y: -0.00738829124724
    z: 0.529349617664
  orientation: 
    x: 0.0100601552309
    y: 0.999904096712
    z: 0.0048599881394
    w: 0.00818359152366
---
header: 
  seq: 3270
  stamp: 
    secs: 1565217561
    nsecs: 449552297
  frame_id: "/stereo/left"
pose: 
  position: 
    x: 0.138235269131
    y: -0.00744053509743
    z: 0.52815195697
  orientation: 
    x: 0.00914507117889
    y: 0.999717602815
    z: 0.0035990045005
    w: 0.0216362996193
---
header: 
  seq: 3271
  stamp: 
    secs: 1565217562
    nsecs:  20077228
  frame_id: "/stereo/left"
pose: 
  position: 
    x: 0.137924033366
    y: -0.00732267152471
    z: 0.527457444968
  orientation: 
    x: 0.00898421106535
    y: 0.999568417607
    z: 0.00301773865552
    w: 0.0278056779838
---
header: 
  seq: 3272
  stamp: 
    secs: 1565217563
    nsecs: 229784727
  frame_id: "/stereo/left"
pose: 
  position: 
    x: 0.138270749233
    y: -0.00743162353636
    z: 0.52826726032
  orientation: 
    x: 0.00910417009385
    y: 0.999764350881
    z: 0.00467694546408
    w: 0.0191437450591
---
header: 
  seq: 3273
  stamp: 
    secs: 1565217563
    nsecs: 817014455
  frame_id: "/stereo/left"
pose: 
  position: 
    x: 0.138429155284
    y: -0.00744819975934
    z: 0.528589336229
  orientation: 
    x: 0.00942381307035
    y: 0.999860984487
    z: 0.00443464464893
    w: 0.0130206518751
---
