header: 
  seq: 5449
  stamp: 
    secs: 1565219266
    nsecs:  43931245
  frame_id: "/stereo/left"
pose: 
  position: 
    x: -0.0640240625449
    y: 0.00709133339741
    z: 0.490336413254
  orientation: 
    x: -0.0166743116201
    y: -0.998683133806
    z: -0.0481360533212
    w: -0.00607338073794
---
header: 
  seq: 5450
  stamp: 
    secs: 1565219266
    nsecs: 686360836
  frame_id: "/stereo/left"
pose: 
  position: 
    x: -0.0640251143727
    y: 0.00709317042675
    z: 0.490521354079
  orientation: 
    x: -0.0168189978477
    y: -0.998717842768
    z: -0.0473444716109
    w: -0.00618812225719
---
header: 
  seq: 5451
  stamp: 
    secs: 1565219267
    nsecs: 316921472
  frame_id: "/stereo/left"
pose: 
  position: 
    x: -0.0640218983419
    y: 0.00710047312059
    z: 0.490559257468
  orientation: 
    x: -0.0164827297076
    y: -0.998702854957
    z: -0.0478469003956
    w: -0.00562149843956
---
header: 
  seq: 5452
  stamp: 
    secs: 1565219267
    nsecs: 888544082
  frame_id: "/stereo/left"
pose: 
  position: 
    x: -0.0640117071259
    y: 0.00710110950856
    z: 0.490602295402
  orientation: 
    x: -0.0167604522975
    y: -0.998710099271
    z: -0.0474730221467
    w: -0.00659825894983
---
header: 
  seq: 5453
  stamp: 
    secs: 1565219269
    nsecs:  66474676
  frame_id: "/stereo/left"
pose: 
  position: 
    x: -0.0640085569223
    y: 0.00708015732294
    z: 0.490322251304
  orientation: 
    x: -0.0165039684549
    y: -0.998723207168
    z: -0.0474192892018
    w: -0.00556646223564
---
header: 
  seq: 5454
  stamp: 
    secs: 1565219269
    nsecs: 644611120
  frame_id: "/stereo/left"
pose: 
  position: 
    x: -0.0641510927238
    y: 0.00710771201038
    z: 0.490771795945
  orientation: 
    x: -0.0163223808993
    y: -0.998740592752
    z: -0.0471514204199
    w: -0.00524898306339
---
header: 
  seq: 5455
  stamp: 
    secs: 1565219270
    nsecs: 207355499
  frame_id: "/stereo/left"
pose: 
  position: 
    x: -0.0638942852208
    y: 0.00697614548392
    z: 0.489684466533
  orientation: 
    x: -0.0166625015443
    y: -0.998625635286
    z: -0.0493198214886
    w: -0.00606273859931
---
header: 
  seq: 5456
  stamp: 
    secs: 1565219271
    nsecs: 370597362
  frame_id: "/stereo/left"
pose: 
  position: 
    x: -0.0640026662094
    y: 0.00712114155015
    z: 0.490518142353
  orientation: 
    x: -0.0162583770827
    y: -0.99868631787
    z: -0.0484848864481
    w: -0.00324337155437
---
header: 
  seq: 5457
  stamp: 
    secs: 1565219271
    nsecs: 940605878
  frame_id: "/stereo/left"
pose: 
  position: 
    x: -0.0640278426029
    y: 0.0070513699183
    z: 0.490394396995
  orientation: 
    x: -0.0167428466745
    y: -0.998713954144
    z: -0.0473439330723
    w: -0.00697616542488
---
header: 
  seq: 5458
  stamp: 
    secs: 1565219272
    nsecs: 585168600
  frame_id: "/stereo/left"
pose: 
  position: 
    x: -0.0640442139732
    y: 0.00711912237764
    z: 0.49064391997
  orientation: 
    x: -0.0167472973111
    y: -0.998724725841
    z: -0.0471534869513
    w: -0.00670810672211
---
header: 
  seq: 5459
  stamp: 
    secs: 1565219273
    nsecs: 155817031
  frame_id: "/stereo/left"
pose: 
  position: 
    x: -0.0640117838109
    y: 0.00703382705095
    z: 0.49037951995
  orientation: 
    x: -0.0166387697319
    y: -0.9987083691
    z: -0.0475089136484
    w: -0.00690274986525
---
header: 
  seq: 5460
  stamp: 
    secs: 1565219274
    nsecs: 331278085
  frame_id: "/stereo/left"
pose: 
  position: 
    x: -0.0638307485882
    y: 0.00699660773661
    z: 0.489705504259
  orientation: 
    x: -0.0167860018352
    y: -0.998704861994
    z: -0.0477355177221
    w: -0.00530557442926
---
header: 
  seq: 5461
  stamp: 
    secs: 1565219274
    nsecs: 908407211
  frame_id: "/stereo/left"
pose: 
  position: 
    x: -0.0636229397401
    y: 0.00688491157627
    z: 0.488784031601
  orientation: 
    x: -0.017191729106
    y: -0.998681833265
    z: -0.0481605440191
    w: -0.00442745485809
---
header: 
  seq: 5462
  stamp: 
    secs: 1565219275
    nsecs: 489381551
  frame_id: "/stereo/left"
pose: 
  position: 
    x: -0.0639416632554
    y: 0.00710142466786
    z: 0.490330562427
  orientation: 
    x: -0.016550008223
    y: -0.99872716864
    z: -0.047290289072
    w: -0.00581105910269
---
header: 
  seq: 5463
  stamp: 
    secs: 1565219276
    nsecs: 125704526
  frame_id: "/stereo/left"
pose: 
  position: 
    x: -0.0641994246188
    y: 0.00683874549753
    z: 0.489872821001
  orientation: 
    x: -0.0169558762434
    y: -0.998715969182
    z: -0.0461962621991
    w: -0.0120339736346
---
header: 
  seq: 5464
  stamp: 
    secs: 1565219277
    nsecs: 284110069
  frame_id: "/stereo/left"
pose: 
  position: 
    x: -0.0639900125452
    y: 0.00716488455489
    z: 0.490677167711
  orientation: 
    x: -0.016370418721
    y: -0.998762145895
    z: -0.0468691794412
    w: -0.00307657884831
---
header: 
  seq: 5465
  stamp: 
    secs: 1565219277
    nsecs: 880924463
  frame_id: "/stereo/left"
pose: 
  position: 
    x: -0.0639963404625
    y: 0.00710733467351
    z: 0.490462842492
  orientation: 
    x: -0.0164915523356
    y: -0.99871127423
    z: -0.0476624240196
    w: -0.0056668125096
---
header: 
  seq: 5466
  stamp: 
    secs: 1565219278
    nsecs: 452355384
  frame_id: "/stereo/left"
pose: 
  position: 
    x: -0.0640001459552
    y: 0.00712455870024
    z: 0.490528161929
  orientation: 
    x: -0.0167352350786
    y: -0.998726521754
    z: -0.047256914093
    w: -0.00566133574163
---
header: 
  seq: 5467
  stamp: 
    secs: 1565219279
    nsecs:  22301435
  frame_id: "/stereo/left"
pose: 
  position: 
    x: -0.0640909569771
    y: 0.0068614197405
    z: 0.489590243083
  orientation: 
    x: -0.0170559945163
    y: -0.998694198068
    z: -0.0470464578335
    w: -0.0102772857016
---
header: 
  seq: 5468
  stamp: 
    secs: 1565219280
    nsecs: 239696502
  frame_id: "/stereo/left"
pose: 
  position: 
    x: -0.0638886389622
    y: 0.0070160867711
    z: 0.48999798297
  orientation: 
    x: -0.0166026361917
    y: -0.998676589093
    z: -0.0482466978282
    w: -0.00645592880896
---
header: 
  seq: 5469
  stamp: 
    secs: 1565219280
    nsecs: 813597202
  frame_id: "/stereo/left"
pose: 
  position: 
    x: -0.0640320352231
    y: 0.00709779384823
    z: 0.490570970188
  orientation: 
    x: -0.0167771794929
    y: -0.99873233969
    z: -0.0470747531796
    w: -0.0060172682949
---
header: 
  seq: 5470
  stamp: 
    secs: 1565219281
    nsecs: 422257900
  frame_id: "/stereo/left"
pose: 
  position: 
    x: -0.0640577949168
    y: 0.00714543746569
    z: 0.490802474053
  orientation: 
    x: -0.0165544085345
    y: -0.998789973585
    z: -0.0459979661272
    w: -0.00535978889087
---
header: 
  seq: 5471
  stamp: 
    secs: 1565219281
    nsecs: 990376710
  frame_id: "/stereo/left"
pose: 
  position: 
    x: -0.0640123856609
    y: 0.00715001430054
    z: 0.490580722511
  orientation: 
    x: -0.0161588257796
    y: -0.998732472377
    z: -0.0474921374588
    w: -0.00410339468068
---
header: 
  seq: 5472
  stamp: 
    secs: 1565219283
    nsecs: 154349803
  frame_id: "/stereo/left"
pose: 
  position: 
    x: -0.0640514004562
    y: 0.00712274455385
    z: 0.490699055091
  orientation: 
    x: -0.0167016851323
    y: -0.998768214921
    z: -0.0462785192569
    w: -0.00643468978781
---
header: 
  seq: 5473
  stamp: 
    secs: 1565219283
    nsecs: 720974683
  frame_id: "/stereo/left"
pose: 
  position: 
    x: -0.0639775020487
    y: 0.00711898195171
    z: 0.4903407402
  orientation: 
    x: -0.016235405443
    y: -0.998662354879
    z: -0.0488422369407
    w: -0.00493441461531
---
header: 
  seq: 5474
  stamp: 
    secs: 1565219284
    nsecs: 279900312
  frame_id: "/stereo/left"
pose: 
  position: 
    x: -0.0639257483641
    y: 0.00712049297876
    z: 0.490331670074
  orientation: 
    x: -0.0164133355113
    y: -0.998717997806
    z: -0.0477335512865
    w: -0.00380412374554
---
header: 
  seq: 5475
  stamp: 
    secs: 1565219284
    nsecs: 925850391
  frame_id: "/stereo/left"
pose: 
  position: 
    x: -0.0638565212767
    y: 0.00708124848647
    z: 0.490120724968
  orientation: 
    x: -0.0163077201004
    y: -0.998606524311
    z: -0.0499494884159
    w: -0.00491085274069
---
header: 
  seq: 5476
  stamp: 
    secs: 1565219286
    nsecs:  87019920
  frame_id: "/stereo/left"
pose: 
  position: 
    x: -0.0637908164773
    y: 0.00726024768432
    z: 0.491029880882
  orientation: 
    x: -0.0167052416624
    y: -0.998600072986
    z: -0.0501520770736
    w: -0.00189691841457
---
header: 
  seq: 5477
  stamp: 
    secs: 1565219286
    nsecs: 691829204
  frame_id: "/stereo/left"
pose: 
  position: 
    x: -0.0641060217607
    y: 0.00743611595127
    z: 0.492318956314
  orientation: 
    x: -0.0169806022953
    y: -0.998711523438
    z: -0.0476805396254
    w: -0.00367671571745
---
header: 
  seq: 5478
  stamp: 
    secs: 1565219287
    nsecs: 261916399
  frame_id: "/stereo/left"
pose: 
  position: 
    x: -0.0640026518167
    y: 0.00718946418742
    z: 0.491059553522
  orientation: 
    x: -0.0165550661808
    y: -0.998674502405
    z: -0.0486187342016
    w: -0.00337442057709
---
header: 
  seq: 5479
  stamp: 
    secs: 1565219287
    nsecs: 836049795
  frame_id: "/stereo/left"
pose: 
  position: 
    x: -0.0641085297701
    y: 0.00721538218272
    z: 0.491239405197
  orientation: 
    x: -0.0169400635722
    y: -0.998730643491
    z: -0.0471811787805
    w: -0.00490635987527
---
header: 
  seq: 5480
  stamp: 
    secs: 1565219289
    nsecs:  43496847
  frame_id: "/stereo/left"
pose: 
  position: 
    x: -0.0640678632919
    y: 0.00721394142167
    z: 0.490992181743
  orientation: 
    x: -0.0164282715989
    y: -0.998734840136
    z: -0.0474322206822
    w: -0.00300257076904
---
header: 
  seq: 5481
  stamp: 
    secs: 1565219289
    nsecs: 614272832
  frame_id: "/stereo/left"
pose: 
  position: 
    x: -0.0640844519209
    y: 0.00717599476318
    z: 0.491003432635
  orientation: 
    x: -0.0172507867493
    y: -0.998701465513
    z: -0.0475635001553
    w: -0.00595874085863
---
header: 
  seq: 5482
  stamp: 
    secs: 1565219290
    nsecs: 220641851
  frame_id: "/stereo/left"
pose: 
  position: 
    x: -0.0640457985426
    y: 0.00716250479236
    z: 0.490803970334
  orientation: 
    x: -0.0167914090722
    y: -0.998676424564
    z: -0.0484902768262
    w: -0.00348434422041
---
header: 
  seq: 5483
  stamp: 
    secs: 1565219291
    nsecs: 363665342
  frame_id: "/stereo/left"
pose: 
  position: 
    x: -0.0641427059635
    y: 0.00685348147353
    z: 0.489727790706
  orientation: 
    x: -0.0170380649285
    y: -0.998593655926
    z: -0.0487615761764
    w: -0.011946688976
---
header: 
  seq: 5484
  stamp: 
    secs: 1565219292
    nsecs:   1329421
  frame_id: "/stereo/left"
pose: 
  position: 
    x: -0.0638933350028
    y: 0.00703917279758
    z: 0.489998298582
  orientation: 
    x: -0.0168890660304
    y: -0.998655380211
    z: -0.0487641603891
    w: -0.00492419399729
---
header: 
  seq: 5485
  stamp: 
    secs: 1565219292
    nsecs: 575496435
  frame_id: "/stereo/left"
pose: 
  position: 
    x: -0.06366053315
    y: 0.00693060883021
    z: 0.489062436357
  orientation: 
    x: -0.0173253465801
    y: -0.998635442859
    z: -0.0491696971691
    w: -0.00307009980728
---
header: 
  seq: 5486
  stamp: 
    secs: 1565219293
    nsecs: 154957294
  frame_id: "/stereo/left"
pose: 
  position: 
    x: -0.0639148223177
    y: 0.00705348512144
    z: 0.489991212864
  orientation: 
    x: -0.0168293282408
    y: -0.998650321233
    z: -0.0489736408491
    w: -0.00398649148256
---
header: 
  seq: 5487
  stamp: 
    secs: 1565219294
    nsecs: 319414377
  frame_id: "/stereo/left"
pose: 
  position: 
    x: -0.0642251958523
    y: 0.00687254444085
    z: 0.490082035835
  orientation: 
    x: -0.0171655601374
    y: -0.998709546453
    z: -0.0463036632197
    w: -0.0118556375539
---
header: 
  seq: 5488
  stamp: 
    secs: 1565219294
    nsecs: 887727260
  frame_id: "/stereo/left"
pose: 
  position: 
    x: -0.064022611141
    y: 0.00721473824237
    z: 0.491181530106
  orientation: 
    x: -0.0169350737436
    y: -0.998675654189
    z: -0.0484845174453
    w: -0.00306473078141
---
