header: 
  seq: 3027
  stamp: 
    secs: 1565217381
    nsecs: 567229032
  frame_id: "/stereo/left"
pose: 
  position: 
    x: 0.0389931820669
    y: -0.00466233689409
    z: 0.534412859763
  orientation: 
    x: -0.0172615465213
    y: -0.998351915837
    z: -0.0547169073025
    w: 0.00124547611733
---
header: 
  seq: 3028
  stamp: 
    secs: 1565217382
    nsecs: 830607414
  frame_id: "/stereo/left"
pose: 
  position: 
    x: 0.0390875706433
    y: -0.00458479774475
    z: 0.534687822085
  orientation: 
    x: -0.017351692027
    y: -0.998292284446
    z: -0.0557655965821
    w: 0.00127743366278
---
header: 
  seq: 3029
  stamp: 
    secs: 1565217383
    nsecs: 415059804
  frame_id: "/stereo/left"
pose: 
  position: 
    x: 0.0391413677408
    y: -0.00458796866917
    z: 0.534730753131
  orientation: 
    x: -0.0176034675424
    y: -0.998163787086
    z: -0.0573772729566
    w: 0.00818661278775
---
header: 
  seq: 3030
  stamp: 
    secs: 1565217383
    nsecs: 987180948
  frame_id: "/stereo/left"
pose: 
  position: 
    x: 0.039005746558
    y: -0.00467131643241
    z: 0.534658040644
  orientation: 
    x: -0.0172790709718
    y: -0.998332165711
    z: -0.0549602101787
    w: 0.00370079859839
---
header: 
  seq: 3031
  stamp: 
    secs: 1565217384
    nsecs: 626045465
  frame_id: "/stereo/left"
pose: 
  position: 
    x: 0.0389789351425
    y: -0.00469856773777
    z: 0.534447871483
  orientation: 
    x: -0.0175781767864
    y: -0.99840549787
    z: -0.0536032340037
    w: 0.00204030103783
---
header: 
  seq: 3032
  stamp: 
    secs: 1565217385
    nsecs: 784699440
  frame_id: "/stereo/left"
pose: 
  position: 
    x: 0.0390095338667
    y: -0.00467057749732
    z: 0.534813895409
  orientation: 
    x: -0.0173514036405
    y: -0.998335358862
    z: -0.0549931689625
    w: 0.00109151504143
---
header: 
  seq: 3033
  stamp: 
    secs: 1565217386
    nsecs: 384323120
  frame_id: "/stereo/left"
pose: 
  position: 
    x: 0.0390384402911
    y: -0.00464092206668
    z: 0.535054433205
  orientation: 
    x: -0.0175045357928
    y: -0.998406047074
    z: -0.0536508805933
    w: 0.000734441480053
---
header: 
  seq: 3034
  stamp: 
    secs: 1565217386
    nsecs: 954407453
  frame_id: "/stereo/left"
pose: 
  position: 
    x: 0.039011794298
    y: -0.0046922050192
    z: 0.534320000563
  orientation: 
    x: -0.0176136120151
    y: -0.998377738118
    z: -0.0541333386671
    w: 0.00111101168752
---
header: 
  seq: 3035
  stamp: 
    secs: 1565217387
    nsecs: 513085603
  frame_id: "/stereo/left"
pose: 
  position: 
    x: 0.0391160473464
    y: -0.00466676437128
    z: 0.534452039972
  orientation: 
    x: -0.0173387281078
    y: -0.998284792389
    z: -0.0558619579395
    w: 0.00250668065826
---
header: 
  seq: 3036
  stamp: 
    secs: 1565217388
    nsecs: 733824729
  frame_id: "/stereo/left"
pose: 
  position: 
    x: 0.0391572309733
    y: -0.00459168047252
    z: 0.534610513131
  orientation: 
    x: -0.0174262523475
    y: -0.998265195572
    z: -0.0560946163105
    w: 0.00403968548316
---
header: 
  seq: 3037
  stamp: 
    secs: 1565217389
    nsecs: 312291145
  frame_id: "/stereo/left"
pose: 
  position: 
    x: 0.0389481441013
    y: -0.00469613749418
    z: 0.534454449363
  orientation: 
    x: -0.017448141756
    y: -0.998427482756
    z: -0.0532270321035
    w: 0.00223765057737
---
header: 
  seq: 3038
  stamp: 
    secs: 1565217389
    nsecs: 918501377
  frame_id: "/stereo/left"
pose: 
  position: 
    x: 0.0389625696269
    y: -0.00472870780857
    z: 0.534374114773
  orientation: 
    x: -0.0176672578305
    y: -0.998413924869
    z: -0.0534390610296
    w: 0.0013301819521
---
header: 
  seq: 3039
  stamp: 
    secs: 1565217390
    nsecs: 491715908
  frame_id: "/stereo/left"
pose: 
  position: 
    x: 0.0389022053251
    y: -0.00475619028943
    z: 0.534101079153
  orientation: 
    x: -0.0180455547969
    y: -0.998476461641
    z: -0.0521395428385
    w: 0.000762609714578
---
header: 
  seq: 3040
  stamp: 
    secs: 1565217391
    nsecs: 655142307
  frame_id: "/stereo/left"
pose: 
  position: 
    x: 0.0390061394066
    y: -0.00469354000492
    z: 0.534549512676
  orientation: 
    x: -0.0171739834779
    y: -0.998306438971
    z: -0.0555334248326
    w: 0.00231234211709
---
header: 
  seq: 3041
  stamp: 
    secs: 1565217392
    nsecs: 229374170
  frame_id: "/stereo/left"
pose: 
  position: 
    x: 0.0389928058804
    y: -0.00473638437594
    z: 0.53445154708
  orientation: 
    x: -0.0172385364617
    y: -0.998361392815
    z: -0.0545428209249
    w: 0.00156297243858
---
header: 
  seq: 3042
  stamp: 
    secs: 1565217392
    nsecs: 800568103
  frame_id: "/stereo/left"
pose: 
  position: 
    x: 0.0390649347871
    y: -0.00474038912298
    z: 0.534189753551
  orientation: 
    x: -0.0177033443116
    y: -0.998361783556
    z: -0.0543538963547
    w: 0.00244840500186
---
header: 
  seq: 3043
  stamp: 
    secs: 1565217393
    nsecs: 440922737
  frame_id: "/stereo/left"
pose: 
  position: 
    x: 0.0390233564065
    y: -0.00463606726873
    z: 0.534804428839
  orientation: 
    x: -0.0173010887981
    y: -0.998297376051
    z: -0.055704535642
    w: -0.000161258469919
---
header: 
  seq: 3044
  stamp: 
    secs: 1565217394
    nsecs: 586368083
  frame_id: "/stereo/left"
pose: 
  position: 
    x: 0.039100735576
    y: -0.00462422010378
    z: 0.534466060066
  orientation: 
    x: -0.0173318788904
    y: -0.998217102077
    z: -0.0569959389635
    w: 0.00369946447209
---
header: 
  seq: 3045
  stamp: 
    secs: 1565217395
    nsecs: 190655708
  frame_id: "/stereo/left"
pose: 
  position: 
    x: 0.0389944878417
    y: -0.00476263609567
    z: 0.534094862221
  orientation: 
    x: -0.0176596700684
    y: -0.998357488274
    z: -0.0544845044672
    w: 0.00137856236063
---
header: 
  seq: 3046
  stamp: 
    secs: 1565217395
    nsecs: 756799459
  frame_id: "/stereo/left"
pose: 
  position: 
    x: 0.038997033806
    y: -0.00476694950777
    z: 0.533995652243
  orientation: 
    x: -0.0172292643863
    y: -0.9983499182
    z: -0.0547715266013
    w: 0.000820458221017
---
header: 
  seq: 3047
  stamp: 
    secs: 1565217396
    nsecs: 330213546
  frame_id: "/stereo/left"
pose: 
  position: 
    x: 0.0389563018656
    y: -0.00465523801201
    z: 0.534582199611
  orientation: 
    x: -0.0174031531872
    y: -0.998415214432
    z: -0.0535159244683
    w: 0.000485467894417
---
header: 
  seq: 3048
  stamp: 
    secs: 1565217397
    nsecs: 545135736
  frame_id: "/stereo/left"
pose: 
  position: 
    x: 0.0389732804878
    y: -0.00467302556876
    z: 0.534742673152
  orientation: 
    x: -0.0172307079548
    y: -0.998303275706
    z: -0.0556147269631
    w: 0.000821318325401
---
header: 
  seq: 3049
  stamp: 
    secs: 1565217398
    nsecs: 127202033
  frame_id: "/stereo/left"
pose: 
  position: 
    x: 0.0389895189361
    y: -0.00471679014352
    z: 0.534254033357
  orientation: 
    x: -0.0171399486763
    y: -0.998313072571
    z: -0.0554128543202
    w: 0.0025781521383
---
header: 
  seq: 3050
  stamp: 
    secs: 1565217398
    nsecs: 738432884
  frame_id: "/stereo/left"
pose: 
  position: 
    x: 0.0388408368606
    y: -0.00473426882299
    z: 0.533857911022
  orientation: 
    x: -0.0176057625499
    y: -0.998468047892
    z: -0.0523045731762
    w: -0.00397820157513
---
header: 
  seq: 3051
  stamp: 
    secs: 1565217399
    nsecs: 307061195
  frame_id: "/stereo/left"
pose: 
  position: 
    x: 0.0390527447238
    y: -0.00473507293712
    z: 0.533983203655
  orientation: 
    x: -0.0173688099419
    y: -0.998297068836
    z: -0.0556245500861
    w: 0.00268257753146
---
header: 
  seq: 3052
  stamp: 
    secs: 1565217400
    nsecs: 460862398
  frame_id: "/stereo/left"
pose: 
  position: 
    x: 0.0390162155645
    y: -0.00478875026747
    z: 0.533695540863
  orientation: 
    x: -0.017507337716
    y: -0.998283554806
    z: -0.0558685640663
    w: 0.00146317417388
---
header: 
  seq: 3053
  stamp: 
    secs: 1565217401
    nsecs:  25270700
  frame_id: "/stereo/left"
pose: 
  position: 
    x: 0.0389773668757
    y: -0.00468089550186
    z: 0.534170485749
  orientation: 
    x: -0.0170852566003
    y: -0.998311440092
    z: -0.0554993510427
    w: 0.00147804689248
---
header: 
  seq: 3054
  stamp: 
    secs: 1565217401
    nsecs: 603179454
  frame_id: "/stereo/left"
pose: 
  position: 
    x: 0.0390251539168
    y: -0.00468102901977
    z: 0.533802761029
  orientation: 
    x: -0.0175430004355
    y: -0.998230023066
    z: -0.0568087023994
    w: 0.001354812438
---
header: 
  seq: 3055
  stamp: 
    secs: 1565217402
    nsecs: 250321388
  frame_id: "/stereo/left"
pose: 
  position: 
    x: 0.0389449545506
    y: -0.00469151720391
    z: 0.534465422177
  orientation: 
    x: -0.0175121177069
    y: -0.99832755361
    z: -0.055041054058
    w: 0.00242977469703
---
header: 
  seq: 3056
  stamp: 
    secs: 1565217403
    nsecs: 388911962
  frame_id: "/stereo/left"
pose: 
  position: 
    x: 0.0389809631921
    y: -0.00468543187431
    z: 0.534576510921
  orientation: 
    x: -0.0174423940447
    y: -0.998325574445
    z: -0.0551268175788
    w: 0.00168649983389
---
header: 
  seq: 3057
  stamp: 
    secs: 1565217403
    nsecs: 996120691
  frame_id: "/stereo/left"
pose: 
  position: 
    x: 0.0390406362138
    y: -0.0047737318036
    z: 0.533716756558
  orientation: 
    x: -0.0177026032398
    y: -0.99832756306
    z: -0.0549423001123
    w: 0.00316833273155
---
header: 
  seq: 3058
  stamp: 
    secs: 1565217404
    nsecs: 560849905
  frame_id: "/stereo/left"
pose: 
  position: 
    x: 0.0391589326026
    y: -0.00464967658927
    z: 0.533903622826
  orientation: 
    x: -0.017931867103
    y: -0.998202555449
    z: -0.0568713389575
    w: 0.00597973590333
---
header: 
  seq: 3059
  stamp: 
    secs: 1565217405
    nsecs: 721293449
  frame_id: "/stereo/left"
pose: 
  position: 
    x: 0.039056892698
    y: -0.00466410469564
    z: 0.534743096765
  orientation: 
    x: -0.0174757263764
    y: -0.998281728715
    z: -0.0559086680271
    w: 0.00155239842331
---
header: 
  seq: 3060
  stamp: 
    secs: 1565217406
    nsecs: 297709941
  frame_id: "/stereo/left"
pose: 
  position: 
    x: 0.0390067445048
    y: -0.00468415265266
    z: 0.534629945184
  orientation: 
    x: -0.0173865238031
    y: -0.998362026528
    z: -0.0544799923356
    w: 0.00170388147262
---
header: 
  seq: 3061
  stamp: 
    secs: 1565217406
    nsecs: 865494966
  frame_id: "/stereo/left"
pose: 
  position: 
    x: 0.0390574764584
    y: -0.00474205031404
    z: 0.533956572689
  orientation: 
    x: -0.0175791659318
    y: -0.998331813354
    z: -0.0549450142185
    w: 0.00236828684429
---
header: 
  seq: 3062
  stamp: 
    secs: 1565217408
    nsecs:  24831056
  frame_id: "/stereo/left"
pose: 
  position: 
    x: 0.0390350938806
    y: -0.00465577191628
    z: 0.534842801219
  orientation: 
    x: -0.017528847154
    y: -0.998409499031
    z: -0.0535794820237
    w: 0.000671467286953
---
header: 
  seq: 3063
  stamp: 
    secs: 1565217408
    nsecs: 589124202
  frame_id: "/stereo/left"
pose: 
  position: 
    x: 0.0390673761177
    y: -0.00477658015969
    z: 0.534107255328
  orientation: 
    x: -0.0178067506452
    y: -0.998298328922
    z: -0.0554812970653
    w: 0.00227854771782
---
header: 
  seq: 3064
  stamp: 
    secs: 1565217409
    nsecs: 227479219
  frame_id: "/stereo/left"
pose: 
  position: 
    x: 0.0390766396979
    y: -0.00465880650274
    z: 0.534682525578
  orientation: 
    x: -0.017531545305
    y: -0.998307780212
    z: -0.0553886390494
    w: 0.00251387199008
---
header: 
  seq: 3065
  stamp: 
    secs: 1565217409
    nsecs: 816553115
  frame_id: "/stereo/left"
pose: 
  position: 
    x: 0.0390734540559
    y: -0.0047052682712
    z: 0.534409882954
  orientation: 
    x: -0.0177032427904
    y: -0.998415285533
    z: -0.0534028778145
    w: 0.00128275058962
---
