header: 
  seq: 3649
  stamp: 
    secs: 1565217843
    nsecs: 102754116
  frame_id: "/stereo/left"
pose: 
  position: 
    x: 0.282115698877
    y: -0.009727657057
    z: 0.515591293473
  orientation: 
    x: 0.00157844336578
    y: 0.998848471429
    z: 0.0202822907183
    w: 0.0434496067132
---
header: 
  seq: 3650
  stamp: 
    secs: 1565217844
    nsecs: 330562353
  frame_id: "/stereo/left"
pose: 
  position: 
    x: 0.287511080712
    y: -0.011682697528
    z: 0.527019032592
  orientation: 
    x: -0.00891609901733
    y: 0.999331415111
    z: 0.00988651703778
    w: 0.0340511781253
---
header: 
  seq: 3651
  stamp: 
    secs: 1565217844
    nsecs: 899868965
  frame_id: "/stereo/left"
pose: 
  position: 
    x: 0.28836960512
    y: -0.0119077238978
    z: 0.528070407146
  orientation: 
    x: -0.00518298082073
    y: 0.999427379854
    z: 0.0176891400929
    w: 0.0283750494473
---
header: 
  seq: 3652
  stamp: 
    secs: 1565217845
    nsecs: 499126434
  frame_id: "/stereo/left"
pose: 
  position: 
    x: 0.288017306798
    y: -0.0115848290953
    z: 0.526657434402
  orientation: 
    x: 0.00175679109597
    y: 0.999279536211
    z: 0.0282023257755
    w: 0.025336752267
---
header: 
  seq: 3653
  stamp: 
    secs: 1565217846
    nsecs: 119482994
  frame_id: "/stereo/left"
pose: 
  position: 
    x: 0.281860665298
    y: -0.00971761654755
    z: 0.515192070642
  orientation: 
    x: 0.00119926372526
    y: 0.998686074429
    z: 0.0158035143124
    w: 0.0487333093784
---
header: 
  seq: 3654
  stamp: 
    secs: 1565217847
    nsecs: 250686407
  frame_id: "/stereo/left"
pose: 
  position: 
    x: 0.287354749561
    y: -0.0113615734266
    z: 0.525187988599
  orientation: 
    x: 0.00332049486591
    y: 0.99929183467
    z: 0.0276937355405
    w: 0.0252559000684
---
header: 
  seq: 3655
  stamp: 
    secs: 1565217847
    nsecs: 855317831
  frame_id: "/stereo/left"
pose: 
  position: 
    x: 0.288265282377
    y: -0.0119839106319
    z: 0.527782227348
  orientation: 
    x: -0.00454830634367
    y: 0.999421821598
    z: 0.0183684504194
    w: 0.0282477512863
---
header: 
  seq: 3656
  stamp: 
    secs: 1565217848
    nsecs: 428955554
  frame_id: "/stereo/left"
pose: 
  position: 
    x: 0.28848629401
    y: -0.0120214827136
    z: 0.52825216056
  orientation: 
    x: -0.00511318589898
    y: 0.999469724864
    z: 0.0181169569663
    w: 0.0265687839603
---
header: 
  seq: 3657
  stamp: 
    secs: 1565217848
    nsecs: 994668483
  frame_id: "/stereo/left"
pose: 
  position: 
    x: 0.2873068813
    y: -0.0113248269275
    z: 0.525082766926
  orientation: 
    x: 0.00316676681809
    y: 0.99929915612
    z: 0.0276113982638
    w: 0.0250754631231
---
header: 
  seq: 3658
  stamp: 
    secs: 1565217850
    nsecs: 162401437
  frame_id: "/stereo/left"
pose: 
  position: 
    x: 0.287251146597
    y: -0.0116656758982
    z: 0.525920858071
  orientation: 
    x: -0.00522363030575
    y: 0.999300992267
    z: 0.0148581701359
    w: 0.0339039130547
---
header: 
  seq: 3659
  stamp: 
    secs: 1565217850
    nsecs: 731948614
  frame_id: "/stereo/left"
pose: 
  position: 
    x: 0.286808099149
    y: -0.0114517896818
    z: 0.52495386454
  orientation: 
    x: -0.00739916829117
    y: 0.999070318595
    z: 0.0135008042226
    w: 0.0402675936323
---
header: 
  seq: 3660
  stamp: 
    secs: 1565217851
    nsecs: 371430158
  frame_id: "/stereo/left"
pose: 
  position: 
    x: 0.283781647522
    y: -0.0102464112355
    z: 0.518028753785
  orientation: 
    x: 0.00721558566908
    y: 0.998340689966
    z: 0.0295069509395
    w: 0.0489197498803
---
header: 
  seq: 3661
  stamp: 
    secs: 1565217851
    nsecs: 937267065
  frame_id: "/stereo/left"
pose: 
  position: 
    x: 0.28573463935
    y: -0.0109731020336
    z: 0.522325194622
  orientation: 
    x: -0.00160334532563
    y: 0.998931211647
    z: 0.0188396184474
    w: 0.0421773927267
---
header: 
  seq: 3662
  stamp: 
    secs: 1565217853
    nsecs: 113001823
  frame_id: "/stereo/left"
pose: 
  position: 
    x: 0.288322974331
    y: -0.0120575882231
    z: 0.527481154843
  orientation: 
    x: -0.0045702899247
    y: 0.999599937518
    z: 0.0174183424042
    w: 0.0218100598716
---
header: 
  seq: 3663
  stamp: 
    secs: 1565217853
    nsecs: 683997631
  frame_id: "/stereo/left"
pose: 
  position: 
    x: 0.288275691727
    y: -0.0120140558962
    z: 0.527638334479
  orientation: 
    x: -0.00285907583235
    y: 0.999562427955
    z: 0.0213678972333
    w: 0.0202531793544
---
header: 
  seq: 3664
  stamp: 
    secs: 1565217854
    nsecs: 249070644
  frame_id: "/stereo/left"
pose: 
  position: 
    x: 0.286502892574
    y: -0.0114865324041
    z: 0.524481979709
  orientation: 
    x: -0.00111734392589
    y: 0.999403316047
    z: 0.0259753295635
    w: 0.0227386383027
---
header: 
  seq: 3665
  stamp: 
    secs: 1565217855
    nsecs: 415524721
  frame_id: "/stereo/left"
pose: 
  position: 
    x: 0.286827702015
    y: -0.0117173432962
    z: 0.525687994054
  orientation: 
    x: -0.00731744515735
    y: 0.999578539956
    z: 0.0145316681998
    w: 0.0240422144409
---
header: 
  seq: 3666
  stamp: 
    secs: 1565217855
    nsecs: 990282297
  frame_id: "/stereo/left"
pose: 
  position: 
    x: 0.286202528391
    y: -0.0114664087728
    z: 0.523944267409
  orientation: 
    x: -0.00205869219975
    y: 0.999337137812
    z: 0.0220657414458
    w: 0.0288816521567
---
header: 
  seq: 3667
  stamp: 
    secs: 1565217856
    nsecs: 627649784
  frame_id: "/stereo/left"
pose: 
  position: 
    x: 0.28296606972
    y: -0.0104182766214
    z: 0.517905315908
  orientation: 
    x: 0.000999764250081
    y: 0.998770325463
    z: 0.0227540949184
    w: 0.0440350838548
---
header: 
  seq: 3668
  stamp: 
    secs: 1565217857
    nsecs: 193794727
  frame_id: "/stereo/left"
pose: 
  position: 
    x: 0.281291401208
    y: -0.0102920071184
    z: 0.515262726839
  orientation: 
    x: -0.00277572564674
    y: 0.998929941259
    z: 0.0186110627472
    w: 0.0422480312824
---
header: 
  seq: 3669
  stamp: 
    secs: 1565217858
    nsecs: 376851081
  frame_id: "/stereo/left"
pose: 
  position: 
    x: 0.283231043982
    y: -0.0103884779191
    z: 0.517946749666
  orientation: 
    x: 0.00556910304176
    y: 0.99856521227
    z: 0.0316474459397
    w: 0.0428362125011
---
header: 
  seq: 3670
  stamp: 
    secs: 1565217858
    nsecs: 935578107
  frame_id: "/stereo/left"
pose: 
  position: 
    x: 0.282812013956
    y: -0.0101525851517
    z: 0.517408269788
  orientation: 
    x: 0.0015982026495
    y: 0.998573840205
    z: 0.0250914951234
    w: 0.0470972215698
---
header: 
  seq: 3671
  stamp: 
    secs: 1565217859
    nsecs: 512996435
  frame_id: "/stereo/left"
pose: 
  position: 
    x: 0.287042309907
    y: -0.0114087111931
    z: 0.525954517939
  orientation: 
    x: -0.00883136887639
    y: 0.99945931413
    z: 0.0127787219511
    w: 0.0289791405628
---
header: 
  seq: 3672
  stamp: 
    secs: 1565217860
    nsecs: 110643625
  frame_id: "/stereo/left"
pose: 
  position: 
    x: 0.287180011771
    y: -0.0113783649231
    z: 0.526063576908
  orientation: 
    x: -0.00747538124646
    y: 0.999444599153
    z: 0.0145589092889
    w: 0.0290284353428
---
header: 
  seq: 3673
  stamp: 
    secs: 1565217861
    nsecs: 282290458
  frame_id: "/stereo/left"
pose: 
  position: 
    x: 0.287460718021
    y: -0.0115095615468
    z: 0.526690705799
  orientation: 
    x: -0.00889967093908
    y: 0.999473300995
    z: 0.0142085180491
    w: 0.0277855082937
---
header: 
  seq: 3674
  stamp: 
    secs: 1565217861
    nsecs: 914343357
  frame_id: "/stereo/left"
pose: 
  position: 
    x: 0.287536489229
    y: -0.0116091104002
    z: 0.526595362481
  orientation: 
    x: -0.00465382677299
    y: 0.999410229118
    z: 0.0187125875599
    w: 0.0284143431665
---
header: 
  seq: 3675
  stamp: 
    secs: 1565217862
    nsecs: 481583595
  frame_id: "/stereo/left"
pose: 
  position: 
    x: 0.288335656236
    y: -0.0117606836726
    z: 0.528253747734
  orientation: 
    x: -0.00612991154183
    y: 0.999430001296
    z: 0.0186549502602
    w: 0.0274606905451
---
header: 
  seq: 3676
  stamp: 
    secs: 1565217863
    nsecs:  52904129
  frame_id: "/stereo/left"
pose: 
  position: 
    x: 0.285944609785
    y: -0.010989664269
    z: 0.523296516412
  orientation: 
    x: -0.0019266295317
    y: 0.999320913819
    z: 0.0216452445775
    w: 0.0297570611758
---
header: 
  seq: 3677
  stamp: 
    secs: 1565217864
    nsecs: 240018129
  frame_id: "/stereo/left"
pose: 
  position: 
    x: 0.282906580772
    y: -0.0102195841715
    z: 0.517657482018
  orientation: 
    x: 0.00181044255761
    y: 0.998769294813
    z: 0.0226155102109
    w: 0.0441039310515
---
header: 
  seq: 3678
  stamp: 
    secs: 1565217864
    nsecs: 817680120
  frame_id: "/stereo/left"
pose: 
  position: 
    x: 0.286885142169
    y: -0.0114393459269
    z: 0.52570083874
  orientation: 
    x: -0.00891408988132
    y: 0.999475516808
    z: 0.0118242610312
    w: 0.0287996033545
---
header: 
  seq: 3679
  stamp: 
    secs: 1565217865
    nsecs: 413144826
  frame_id: "/stereo/left"
pose: 
  position: 
    x: 0.28700100181
    y: -0.0114689125278
    z: 0.525791902094
  orientation: 
    x: -0.00669777947066
    y: 0.99938252954
    z: 0.0149370659673
    w: 0.0310899253966
---
header: 
  seq: 3680
  stamp: 
    secs: 1565217865
    nsecs: 974661827
  frame_id: "/stereo/left"
pose: 
  position: 
    x: 0.286300845225
    y: -0.0111240972357
    z: 0.524065416173
  orientation: 
    x: -0.00166515900641
    y: 0.999319370635
    z: 0.0219359722947
    w: 0.0296114139981
---
header: 
  seq: 3681
  stamp: 
    secs: 1565217867
    nsecs: 178260564
  frame_id: "/stereo/left"
pose: 
  position: 
    x: 0.287413527127
    y: -0.0114818014603
    z: 0.526704738252
  orientation: 
    x: -0.00881400002928
    y: 0.999458814177
    z: 0.0135001620065
    w: 0.02867294532
---
header: 
  seq: 3682
  stamp: 
    secs: 1565217867
    nsecs: 748951673
  frame_id: "/stereo/left"
pose: 
  position: 
    x: 0.287250760201
    y: -0.011333469256
    z: 0.526126674823
  orientation: 
    x: -0.00596321025557
    y: 0.99945667624
    z: 0.0161357162125
    w: 0.0281146066231
---
header: 
  seq: 3683
  stamp: 
    secs: 1565217868
    nsecs: 330930233
  frame_id: "/stereo/left"
pose: 
  position: 
    x: 0.287291884396
    y: -0.0114910954069
    z: 0.526426789438
  orientation: 
    x: -0.00815875635552
    y: 0.99944442027
    z: 0.0139750226561
    w: 0.0291373339173
---
header: 
  seq: 3684
  stamp: 
    secs: 1565217869
    nsecs: 499646902
  frame_id: "/stereo/left"
pose: 
  position: 
    x: 0.282601289487
    y: -0.0100509400606
    z: 0.516899932693
  orientation: 
    x: 0.00184019424272
    y: 0.998643372566
    z: 0.0243704317147
    w: 0.0459794538134
---
header: 
  seq: 3685
  stamp: 
    secs: 1565217870
    nsecs:  60692071
  frame_id: "/stereo/left"
pose: 
  position: 
    x: 0.286857331752
    y: -0.0114908936217
    z: 0.525725496198
  orientation: 
    x: -0.00812256271596
    y: 0.999452887619
    z: 0.0133635128707
    w: 0.029143883228
---
header: 
  seq: 3686
  stamp: 
    secs: 1565217870
    nsecs: 722522735
  frame_id: "/stereo/left"
pose: 
  position: 
    x: 0.286370996599
    y: -0.0112300957306
    z: 0.524286198667
  orientation: 
    x: -0.00247000100252
    y: 0.999356699053
    z: 0.0203705330417
    w: 0.0294130674609
---
header: 
  seq: 3687
  stamp: 
    secs: 1565217871
    nsecs: 300817966
  frame_id: "/stereo/left"
pose: 
  position: 
    x: 0.287012044852
    y: -0.0115753953364
    z: 0.525958920941
  orientation: 
    x: -0.00857447245733
    y: 0.999450543726
    z: 0.0138580141609
    w: 0.0288625104762
---
header: 
  seq: 3688
  stamp: 
    secs: 1565217872
    nsecs: 478522300
  frame_id: "/stereo/left"
pose: 
  position: 
    x: 0.283743769755
    y: -0.0104314708978
    z: 0.519014910252
  orientation: 
    x: 0.00273673715166
    y: 0.998769593001
    z: 0.0273559119975
    w: 0.0412730474394
---
