header: 
  seq: 2622
  stamp: 
    secs: 1565217078
    nsecs: 499977350
  frame_id: "/stereo/left"
pose: 
  position: 
    x: 0.238396051607
    y: -0.0188123982479
    z: 0.574389660013
  orientation: 
    x: -0.0103383113376
    y: 0.999844534276
    z: 0.00580589685716
    w: 0.0130505999493
---
header: 
  seq: 2623
  stamp: 
    secs: 1565217079
    nsecs: 113565921
  frame_id: "/stereo/left"
pose: 
  position: 
    x: 0.23469586426
    y: -0.0177254158059
    z: 0.565618513931
  orientation: 
    x: -0.0153555387178
    y: 0.999710041281
    z: -0.0106952959816
    w: 0.0151542547219
---
header: 
  seq: 2624
  stamp: 
    secs: 1565217079
    nsecs: 712070941
  frame_id: "/stereo/left"
pose: 
  position: 
    x: 0.234439938533
    y: -0.0176172656954
    z: 0.564952447609
  orientation: 
    x: -0.0155402380265
    y: 0.999711540323
    z: -0.0117986508745
    w: 0.0140046058386
---
header: 
  seq: 2625
  stamp: 
    secs: 1565217080
    nsecs: 865333795
  frame_id: "/stereo/left"
pose: 
  position: 
    x: 0.238574512421
    y: -0.0187775401916
    z: 0.574686256539
  orientation: 
    x: -0.0104446943212
    y: 0.999859532217
    z: 0.00598928387803
    w: 0.0116598745455
---
header: 
  seq: 2626
  stamp: 
    secs: 1565217081
    nsecs: 437747716
  frame_id: "/stereo/left"
pose: 
  position: 
    x: 0.23496677238
    y: -0.0178001415106
    z: 0.566053141206
  orientation: 
    x: -0.0161826048685
    y: 0.999672671476
    z: -0.00950750112856
    w: 0.017386219443
---
header: 
  seq: 2627
  stamp: 
    secs: 1565217082
    nsecs:  72499275
  frame_id: "/stereo/left"
pose: 
  position: 
    x: 0.235291856891
    y: -0.017969303761
    z: 0.566901392385
  orientation: 
    x: -0.0158854079426
    y: 0.999705826207
    z: -0.00788129973986
    w: 0.0165469023078
---
header: 
  seq: 2628
  stamp: 
    secs: 1565217082
    nsecs: 643231153
  frame_id: "/stereo/left"
pose: 
  position: 
    x: 0.239017921072
    y: -0.0189235888863
    z: 0.575873974934
  orientation: 
    x: -0.00954832165284
    y: 0.999856557606
    z: 0.0082284007333
    w: 0.0113131422318
---
header: 
  seq: 2629
  stamp: 
    secs: 1565217083
    nsecs: 815476894
  frame_id: "/stereo/left"
pose: 
  position: 
    x: 0.234923718922
    y: -0.0179402123203
    z: 0.566290815733
  orientation: 
    x: -0.0150626904013
    y: 0.999759855836
    z: -0.00869276243657
    w: 0.0133334878425
---
header: 
  seq: 2630
  stamp: 
    secs: 1565217084
    nsecs: 380662679
  frame_id: "/stereo/left"
pose: 
  position: 
    x: 0.235193087008
    y: -0.0180442917382
    z: 0.567057969872
  orientation: 
    x: -0.0153653795066
    y: 0.999762039769
    z: -0.009400237038
    w: 0.0123046533115
---
header: 
  seq: 2631
  stamp: 
    secs: 1565217084
    nsecs: 954978466
  frame_id: "/stereo/left"
pose: 
  position: 
    x: 0.238609466072
    y: -0.0188609711588
    z: 0.574744632547
  orientation: 
    x: -0.0104213828475
    y: 0.999875531191
    z: 0.00484468147267
    w: 0.0108095312788
---
header: 
  seq: 2632
  stamp: 
    secs: 1565217086
    nsecs: 123973608
  frame_id: "/stereo/left"
pose: 
  position: 
    x: 0.237231974951
    y: -0.0186355328145
    z: 0.571618834046
  orientation: 
    x: -0.0124867605075
    y: 0.999823784488
    z: -0.00124077401084
    w: 0.0139621367842
---
header: 
  seq: 2633
  stamp: 
    secs: 1565217086
    nsecs: 690870761
  frame_id: "/stereo/left"
pose: 
  position: 
    x: 0.235178908055
    y: -0.0180224519003
    z: 0.566778667984
  orientation: 
    x: -0.0156176436025
    y: 0.999696091247
    z: -0.00815449591311
    w: 0.0172429275503
---
header: 
  seq: 2634
  stamp: 
    secs: 1565217087
    nsecs: 334924697
  frame_id: "/stereo/left"
pose: 
  position: 
    x: 0.238200036992
    y: -0.0188476619617
    z: 0.573772598359
  orientation: 
    x: -0.0107722075268
    y: 0.999853995839
    z: 0.00417355143268
    w: 0.0125907910389
---
header: 
  seq: 2635
  stamp: 
    secs: 1565217087
    nsecs: 905686378
  frame_id: "/stereo/left"
pose: 
  position: 
    x: 0.238971192156
    y: -0.0188650861666
    z: 0.575892209911
  orientation: 
    x: -0.0104727214454
    y: 0.999894002927
    z: 0.00689920556344
    w: 0.00739634902906
---
header: 
  seq: 2636
  stamp: 
    secs: 1565217089
    nsecs:  88461160
  frame_id: "/stereo/left"
pose: 
  position: 
    x: 0.235051756405
    y: -0.0174806384444
    z: 0.567362341558
  orientation: 
    x: -0.0144865139275
    y: 0.999705787376
    z: -0.0170016350665
    w: 0.00945642676592
---
header: 
  seq: 2637
  stamp: 
    secs: 1565217089
    nsecs: 660682439
  frame_id: "/stereo/left"
pose: 
  position: 
    x: 0.235469576646
    y: -0.0181764735025
    z: 0.566998568788
  orientation: 
    x: -0.0148821219384
    y: 0.999756594056
    z: -0.00749240117102
    w: 0.0144616393764
---
header: 
  seq: 2638
  stamp: 
    secs: 1565217090
    nsecs: 236190795
  frame_id: "/stereo/left"
pose: 
  position: 
    x: 0.238349757942
    y: -0.018809586158
    z: 0.574007959045
  orientation: 
    x: -0.0112952361485
    y: 0.999863495315
    z: 0.00392512494149
    w: 0.0114018319388
---
header: 
  seq: 2639
  stamp: 
    secs: 1565217090
    nsecs: 876251220
  frame_id: "/stereo/left"
pose: 
  position: 
    x: 0.237356651088
    y: -0.0186305456976
    z: 0.571703434702
  orientation: 
    x: -0.0122959316936
    y: 0.999803757314
    z: -0.000433063755279
    w: 0.0155264091552
---
header: 
  seq: 2640
  stamp: 
    secs: 1565217092
    nsecs:  25285243
  frame_id: "/stereo/left"
pose: 
  position: 
    x: 0.237444856082
    y: -0.0185828420647
    z: 0.571880463371
  orientation: 
    x: -0.0127998742071
    y: 0.999818028083
    z: 0.000337929631133
    w: 0.014140712303
---
header: 
  seq: 2641
  stamp: 
    secs: 1565217092
    nsecs: 625105857
  frame_id: "/stereo/left"
pose: 
  position: 
    x: 0.235374135311
    y: -0.017975983687
    z: 0.56710940079
  orientation: 
    x: -0.0155287559529
    y: 0.99968745552
    z: -0.00849728716345
    w: 0.0176534734658
---
header: 
  seq: 2642
  stamp: 
    secs: 1565217093
    nsecs: 193849086
  frame_id: "/stereo/left"
pose: 
  position: 
    x: 0.235161935147
    y: -0.0179810650533
    z: 0.566737034042
  orientation: 
    x: -0.015698821461
    y: 0.999692975642
    z: -0.0091303446007
    w: 0.0168564012561
---
header: 
  seq: 2643
  stamp: 
    secs: 1565217093
    nsecs: 758332490
  frame_id: "/stereo/left"
pose: 
  position: 
    x: 0.23889927304
    y: -0.0188182456151
    z: 0.575354935866
  orientation: 
    x: -0.00991356414365
    y: 0.999856030759
    z: 0.00695254930993
    w: 0.0118870122246
---
header: 
  seq: 2644
  stamp: 
    secs: 1565217094
    nsecs: 976809263
  frame_id: "/stereo/left"
pose: 
  position: 
    x: 0.238433018388
    y: -0.0188453700156
    z: 0.574322207571
  orientation: 
    x: -0.0108721739414
    y: 0.999830952979
    z: 0.00669657869109
    w: 0.0132294040823
---
header: 
  seq: 2645
  stamp: 
    secs: 1565217095
    nsecs: 553966522
  frame_id: "/stereo/left"
pose: 
  position: 
    x: 0.234837078272
    y: -0.0177988857876
    z: 0.565643787527
  orientation: 
    x: -0.0157854704978
    y: 0.999674570719
    z: -0.00995966783357
    w: 0.0173889791538
---
header: 
  seq: 2646
  stamp: 
    secs: 1565217096
    nsecs: 160906076
  frame_id: "/stereo/left"
pose: 
  position: 
    x: 0.238497620923
    y: -0.0188073371197
    z: 0.574412259424
  orientation: 
    x: -0.0103314809139
    y: 0.999858438188
    z: 0.0054941288881
    w: 0.0120904356259
---
header: 
  seq: 2647
  stamp: 
    secs: 1565217096
    nsecs: 732110023
  frame_id: "/stereo/left"
pose: 
  position: 
    x: 0.238076677788
    y: -0.0188244488762
    z: 0.573188981946
  orientation: 
    x: -0.0110038060138
    y: 0.999836844196
    z: 0.0031676205659
    w: 0.0139702333809
---
header: 
  seq: 2648
  stamp: 
    secs: 1565217097
    nsecs: 897552490
  frame_id: "/stereo/left"
pose: 
  position: 
    x: 0.235092657249
    y: -0.0178538694168
    z: 0.566337917698
  orientation: 
    x: -0.015930153146
    y: 0.999660995762
    z: -0.0101557448465
    w: 0.0179160436151
---
header: 
  seq: 2649
  stamp: 
    secs: 1565217098
    nsecs: 470445632
  frame_id: "/stereo/left"
pose: 
  position: 
    x: 0.238489154323
    y: -0.0188114165549
    z: 0.574396893766
  orientation: 
    x: -0.0105526690649
    y: 0.999863496708
    z: 0.00589613226525
    w: 0.0112634253874
---
header: 
  seq: 2650
  stamp: 
    secs: 1565217099
    nsecs:  44311761
  frame_id: "/stereo/left"
pose: 
  position: 
    x: 0.238595135598
    y: -0.0188125693679
    z: 0.574648883886
  orientation: 
    x: -0.0109092953541
    y: 0.999851583468
    z: 0.00580239930112
    w: 0.0120054351879
---
header: 
  seq: 2651
  stamp: 
    secs: 1565217099
    nsecs: 634406089
  frame_id: "/stereo/left"
pose: 
  position: 
    x: 0.234969973621
    y: -0.0178601708776
    z: 0.56603183804
  orientation: 
    x: -0.0157587537715
    y: 0.999689359783
    z: -0.00980888207132
    w: 0.0166322412161
---
header: 
  seq: 2652
  stamp: 
    secs: 1565217100
    nsecs: 780134677
  frame_id: "/stereo/left"
pose: 
  position: 
    x: 0.237360266366
    y: -0.0186108909092
    z: 0.571800112798
  orientation: 
    x: -0.0120017591337
    y: 0.999830452055
    z: 0.000316117356019
    w: 0.0139615540576
---
header: 
  seq: 2653
  stamp: 
    secs: 1565217101
    nsecs: 413736343
  frame_id: "/stereo/left"
pose: 
  position: 
    x: 0.235469744139
    y: -0.018062987912
    z: 0.567421750527
  orientation: 
    x: -0.0154614360909
    y: 0.999723846874
    z: -0.00899034580099
    w: 0.0152429546948
---
header: 
  seq: 2654
  stamp: 
    secs: 1565217101
    nsecs: 989554882
  frame_id: "/stereo/left"
pose: 
  position: 
    x: 0.237252197705
    y: -0.0185086174766
    z: 0.571541024554
  orientation: 
    x: -0.013340364369
    y: 0.999812652564
    z: -0.00348686818871
    w: 0.0135844102785
---
header: 
  seq: 2655
  stamp: 
    secs: 1565217102
    nsecs: 555095195
  frame_id: "/stereo/left"
pose: 
  position: 
    x: 0.234165339122
    y: -0.0171682213192
    z: 0.563925101131
  orientation: 
    x: -0.0149772009235
    y: 0.999621138986
    z: -0.0165525515889
    w: 0.0161020178814
---
header: 
  seq: 2656
  stamp: 
    secs: 1565217103
    nsecs: 740936994
  frame_id: "/stereo/left"
pose: 
  position: 
    x: 0.238306987455
    y: -0.0187551566341
    z: 0.574004975021
  orientation: 
    x: -0.0109771716978
    y: 0.999875009283
    z: 0.0033937355716
    w: 0.0108604821574
---
header: 
  seq: 2657
  stamp: 
    secs: 1565217104
    nsecs: 313182115
  frame_id: "/stereo/left"
pose: 
  position: 
    x: 0.237355788134
    y: -0.0186463637921
    z: 0.571812520854
  orientation: 
    x: -0.0126001538926
    y: 0.999826177983
    z: 1.86840944196e-05
    w: 0.0137422557292
---
header: 
  seq: 2658
  stamp: 
    secs: 1565217104
    nsecs: 947373867
  frame_id: "/stereo/left"
pose: 
  position: 
    x: 0.238598313139
    y: -0.0187882692169
    z: 0.574485013878
  orientation: 
    x: -0.0108449249009
    y: 0.999851547886
    z: 0.00559360357417
    w: 0.012164760258
---
header: 
  seq: 2659
  stamp: 
    secs: 1565217105
    nsecs: 518655061
  frame_id: "/stereo/left"
pose: 
  position: 
    x: 0.234572084539
    y: -0.0174813129648
    z: 0.565257161805
  orientation: 
    x: -0.0158952159549
    y: 0.999658715635
    z: -0.014341328443
    w: 0.0149706600683
---
header: 
  seq: 2660
  stamp: 
    secs: 1565217106
    nsecs: 695902585
  frame_id: "/stereo/left"
pose: 
  position: 
    x: 0.234659557543
    y: -0.0176920367822
    z: 0.565626518348
  orientation: 
    x: -0.0157698660116
    y: 0.999701926027
    z: -0.0109951455352
    w: 0.0150491594152
---
header: 
  seq: 2661
  stamp: 
    secs: 1565217107
    nsecs: 268408775
  frame_id: "/stereo/left"
pose: 
  position: 
    x: 0.234910192091
    y: -0.0178686179123
    z: 0.566175527975
  orientation: 
    x: -0.0151042064052
    y: 0.999750900639
    z: -0.00939657084915
    w: 0.0134797654659
---
