header: 
  seq: 4535
  stamp: 
    secs: 1565218506
    nsecs: 528263568
  frame_id: "/stereo/left"
pose: 
  position: 
    x: 0.0341372413636
    y: 0.0111828972399
    z: 0.439306900619
  orientation: 
    x: -0.0136856878863
    y: -0.999752310745
    z: 0.0137550670682
    w: -0.0109003319356
---
header: 
  seq: 4536
  stamp: 
    secs: 1565218507
    nsecs: 209584951
  frame_id: "/stereo/left"
pose: 
  position: 
    x: 0.034035458229
    y: 0.0111298904756
    z: 0.439275609217
  orientation: 
    x: -0.0134384577656
    y: -0.999737814468
    z: 0.0155403043411
    w: -0.0101098524323
---
header: 
  seq: 4537
  stamp: 
    secs: 1565218508
    nsecs: 347647190
  frame_id: "/stereo/left"
pose: 
  position: 
    x: 0.033941452266
    y: 0.0111670821024
    z: 0.437889930473
  orientation: 
    x: -0.0132671863125
    y: -0.999636089458
    z: 0.0141579673353
    w: -0.0187409279645
---
header: 
  seq: 4538
  stamp: 
    secs: 1565218508
    nsecs: 920556068
  frame_id: "/stereo/left"
pose: 
  position: 
    x: 0.034034506048
    y: 0.0111120341353
    z: 0.438957352371
  orientation: 
    x: -0.0136998727012
    y: -0.999750597423
    z: 0.012505798261
    w: -0.0124362956596
---
header: 
  seq: 4539
  stamp: 
    secs: 1565218509
    nsecs: 537226676
  frame_id: "/stereo/left"
pose: 
  position: 
    x: 0.0340548583296
    y: 0.011154399614
    z: 0.439057538814
  orientation: 
    x: -0.0140233119382
    y: -0.999760635508
    z: 0.0112807356121
    w: -0.012440394475
---
header: 
  seq: 4540
  stamp: 
    secs: 1565218510
    nsecs: 182337999
  frame_id: "/stereo/left"
pose: 
  position: 
    x: 0.0339472241932
    y: 0.0111407187265
    z: 0.438512088622
  orientation: 
    x: -0.0135944792726
    y: -0.999693579785
    z: 0.0130090420109
    w: -0.0160842002077
---
header: 
  seq: 4541
  stamp: 
    secs: 1565218511
    nsecs: 336138963
  frame_id: "/stereo/left"
pose: 
  position: 
    x: 0.033899737066
    y: 0.0112256339774
    z: 0.438197714029
  orientation: 
    x: -0.0131291458277
    y: -0.999640355374
    z: 0.0139780150451
    w: -0.0187456803555
---
header: 
  seq: 4542
  stamp: 
    secs: 1565218511
    nsecs: 955087661
  frame_id: "/stereo/left"
pose: 
  position: 
    x: 0.0340582806012
    y: 0.0111712757382
    z: 0.43891519512
  orientation: 
    x: -0.0142722913399
    y: -0.999763463596
    z: 0.0104884257292
    w: -0.012621865326
---
header: 
  seq: 4543
  stamp: 
    secs: 1565218512
    nsecs: 519251108
  frame_id: "/stereo/left"
pose: 
  position: 
    x: 0.0341501463709
    y: 0.0112034531685
    z: 0.439131567639
  orientation: 
    x: -0.014135255665
    y: -0.999764466149
    z: 0.0101443408674
    w: -0.0129730151159
---
header: 
  seq: 4544
  stamp: 
    secs: 1565218513
    nsecs:  94578742
  frame_id: "/stereo/left"
pose: 
  position: 
    x: 0.0341376975909
    y: 0.0112376738087
    z: 0.438779091174
  orientation: 
    x: -0.0142646562134
    y: -0.999769285754
    z: 0.00887482567796
    w: -0.0133840320936
---
header: 
  seq: 4545
  stamp: 
    secs: 1565218514
    nsecs: 257325887
  frame_id: "/stereo/left"
pose: 
  position: 
    x: 0.0340305390958
    y: 0.011136850001
    z: 0.438937482389
  orientation: 
    x: -0.0136543479222
    y: -0.999728901242
    z: 0.0145791293934
    w: -0.0119637699411
---
header: 
  seq: 4546
  stamp: 
    secs: 1565218514
    nsecs: 830100774
  frame_id: "/stereo/left"
pose: 
  position: 
    x: 0.0340124470461
    y: 0.0111191333485
    z: 0.438691181959
  orientation: 
    x: -0.0134597314148
    y: -0.999724772062
    z: 0.0126601928094
    w: -0.014454593498
---
header: 
  seq: 4547
  stamp: 
    secs: 1565218515
    nsecs: 470852613
  frame_id: "/stereo/left"
pose: 
  position: 
    x: 0.0338564573009
    y: 0.011146210384
    z: 0.437994372092
  orientation: 
    x: -0.0128138625448
    y: -0.99958095863
    z: 0.0167451391692
    w: -0.0198321049123
---
header: 
  seq: 4548
  stamp: 
    secs: 1565218516
    nsecs:  43663263
  frame_id: "/stereo/left"
pose: 
  position: 
    x: 0.0338754616205
    y: 0.0112227223656
    z: 0.438243840207
  orientation: 
    x: -0.0127255226607
    y: -0.999668775109
    z: 0.0124738922499
    w: -0.0185688760398
---
header: 
  seq: 4549
  stamp: 
    secs: 1565218517
    nsecs: 268277168
  frame_id: "/stereo/left"
pose: 
  position: 
    x: 0.0339775041836
    y: 0.0110948558148
    z: 0.440356956197
  orientation: 
    x: -0.0128920913176
    y: -0.999557462858
    z: 0.025981324284
    w: -0.00660630119956
---
header: 
  seq: 4550
  stamp: 
    secs: 1565218517
    nsecs: 842622280
  frame_id: "/stereo/left"
pose: 
  position: 
    x: 0.0341472646419
    y: 0.0112029858635
    z: 0.439082699763
  orientation: 
    x: -0.0139357350493
    y: -0.999756507649
    z: 0.0125119047017
    w: -0.0116693163284
---
header: 
  seq: 4551
  stamp: 
    secs: 1565218518
    nsecs: 434632301
  frame_id: "/stereo/left"
pose: 
  position: 
    x: 0.03396639581
    y: 0.0111815690438
    z: 0.438168016492
  orientation: 
    x: -0.0129715533601
    y: -0.999687082929
    z: 0.0131753867951
    w: -0.016848863817
---
header: 
  seq: 4552
  stamp: 
    secs: 1565218519
    nsecs:  73265552
  frame_id: "/stereo/left"
pose: 
  position: 
    x: 0.0340384139262
    y: 0.0111642121605
    z: 0.439029809273
  orientation: 
    x: -0.0141455004056
    y: -0.999767063295
    z: 0.012041473611
    w: -0.0109875785365
---
header: 
  seq: 4553
  stamp: 
    secs: 1565218520
    nsecs: 216567754
  frame_id: "/stereo/left"
pose: 
  position: 
    x: 0.0339326842982
    y: 0.0111014180818
    z: 0.438997422398
  orientation: 
    x: -0.0134563655727
    y: -0.999650065506
    z: 0.0195053256134
    w: -0.0117564889696
---
header: 
  seq: 4554
  stamp: 
    secs: 1565218520
    nsecs: 825399398
  frame_id: "/stereo/left"
pose: 
  position: 
    x: 0.033897348868
    y: 0.0111662515984
    z: 0.438179868208
  orientation: 
    x: -0.0128772977834
    y: -0.999634844389
    z: 0.0151484966612
    w: -0.0182996211579
---
header: 
  seq: 4555
  stamp: 
    secs: 1565218521
    nsecs: 391945838
  frame_id: "/stereo/left"
pose: 
  position: 
    x: 0.0338620816867
    y: 0.0111897304088
    z: 0.438017546599
  orientation: 
    x: -0.0129150387948
    y: -0.999621404487
    z: 0.0147876868609
    w: -0.0192762491856
---
header: 
  seq: 4556
  stamp: 
    secs: 1565218521
    nsecs: 965964078
  frame_id: "/stereo/left"
pose: 
  position: 
    x: 0.0341763151973
    y: 0.0112411854576
    z: 0.438801996066
  orientation: 
    x: -0.0143150871806
    y: -0.999787977003
    z: 0.00803386801515
    w: -0.0124312623599
---
header: 
  seq: 4557
  stamp: 
    secs: 1565218523
    nsecs: 176464080
  frame_id: "/stereo/left"
pose: 
  position: 
    x: 0.0341216159266
    y: 0.0112471482131
    z: 0.438531084147
  orientation: 
    x: -0.0142034651333
    y: -0.99975354831
    z: 0.00818832031385
    w: -0.0149684879199
---
header: 
  seq: 4558
  stamp: 
    secs: 1565218523
    nsecs: 750247716
  frame_id: "/stereo/left"
pose: 
  position: 
    x: 0.0340275411605
    y: 0.011159594701
    z: 0.438418126308
  orientation: 
    x: -0.0132309023966
    y: -0.999700036538
    z: 0.0126772746776
    w: -0.0162501345708
---
header: 
  seq: 4559
  stamp: 
    secs: 1565218524
    nsecs: 363310813
  frame_id: "/stereo/left"
pose: 
  position: 
    x: 0.0338737810896
    y: 0.0111595522752
    z: 0.438000453709
  orientation: 
    x: -0.0129119119567
    y: -0.999667432513
    z: 0.013568927147
    w: -0.0177254370262
---
header: 
  seq: 4560
  stamp: 
    secs: 1565218525
    nsecs: 496471881
  frame_id: "/stereo/left"
pose: 
  position: 
    x: 0.0339742868464
    y: 0.0111401602139
    z: 0.438428295862
  orientation: 
    x: -0.0136079558117
    y: -0.999684594141
    z: 0.0138290537559
    w: -0.0159465685102
---
header: 
  seq: 4561
  stamp: 
    secs: 1565218526
    nsecs:  84141731
  frame_id: "/stereo/left"
pose: 
  position: 
    x: 0.0342000808062
    y: 0.0111659527891
    z: 0.439617798557
  orientation: 
    x: -0.0138543685486
    y: -0.999777174848
    z: 0.0148322327248
    w: -0.00580189595565
---
header: 
  seq: 4562
  stamp: 
    secs: 1565218526
    nsecs: 653493165
  frame_id: "/stereo/left"
pose: 
  position: 
    x: 0.0342403430825
    y: 0.0111897542088
    z: 0.439201474853
  orientation: 
    x: -0.0137919731806
    y: -0.999808323049
    z: 0.0128446722237
    w: -0.00530217245861
---
header: 
  seq: 4563
  stamp: 
    secs: 1565218527
    nsecs: 213474988
  frame_id: "/stereo/left"
pose: 
  position: 
    x: 0.0340424541397
    y: 0.0111720898892
    z: 0.439105257165
  orientation: 
    x: -0.0133473842583
    y: -0.999729595299
    z: 0.0131404540133
    w: -0.0137808593672
---
header: 
  seq: 4564
  stamp: 
    secs: 1565218528
    nsecs: 378684043
  frame_id: "/stereo/left"
pose: 
  position: 
    x: 0.0339836820822
    y: 0.0111043582117
    z: 0.439554101289
  orientation: 
    x: -0.0136047881464
    y: -0.999710516492
    z: 0.0181633260823
    w: -0.00799290568462
---
header: 
  seq: 4565
  stamp: 
    secs: 1565218528
    nsecs: 956174612
  frame_id: "/stereo/left"
pose: 
  position: 
    x: 0.0340231719953
    y: 0.0111210370765
    z: 0.439026126526
  orientation: 
    x: -0.0134031841368
    y: -0.99973513511
    z: 0.0145094776833
    w: -0.0118105604856
---
header: 
  seq: 4566
  stamp: 
    secs: 1565218529
    nsecs: 543667554
  frame_id: "/stereo/left"
pose: 
  position: 
    x: 0.0339122746186
    y: 0.0112105069912
    z: 0.437999038097
  orientation: 
    x: -0.0131428774136
    y: -0.999641157501
    z: 0.0132809830513
    w: -0.0191946995718
---
header: 
  seq: 4567
  stamp: 
    secs: 1565218530
    nsecs: 675257682
  frame_id: "/stereo/left"
pose: 
  position: 
    x: 0.0340363059465
    y: 0.0111736784294
    z: 0.438514510127
  orientation: 
    x: -0.013637490189
    y: -0.999732510601
    z: 0.010475756564
    w: -0.0154655951132
---
header: 
  seq: 4568
  stamp: 
    secs: 1565218531
    nsecs: 315655469
  frame_id: "/stereo/left"
pose: 
  position: 
    x: 0.0338864609397
    y: 0.0111359562011
    z: 0.438016243056
  orientation: 
    x: -0.0130067516027
    y: -0.99962582792
    z: 0.0148238715658
    w: -0.018954719711
---
header: 
  seq: 4569
  stamp: 
    secs: 1565218531
    nsecs: 890138387
  frame_id: "/stereo/left"
pose: 
  position: 
    x: 0.033942675215
    y: 0.0111242699226
    z: 0.438524890903
  orientation: 
    x: -0.0134972187367
    y: -0.999688460814
    z: 0.0136319214976
    w: -0.0159680029473
---
header: 
  seq: 4570
  stamp: 
    secs: 1565218532
    nsecs: 459712743
  frame_id: "/stereo/left"
pose: 
  position: 
    x: 0.0338361405742
    y: 0.0111914090589
    z: 0.438244407937
  orientation: 
    x: -0.012722164404
    y: -0.999666551706
    z: 0.0148739202635
    w: -0.0168433496939
---
header: 
  seq: 4571
  stamp: 
    secs: 1565218533
    nsecs: 634843349
  frame_id: "/stereo/left"
pose: 
  position: 
    x: 0.0339825693167
    y: 0.0111366648397
    z: 0.439043888026
  orientation: 
    x: -0.0137707328459
    y: -0.999729705953
    z: 0.0138422588873
    w: -0.0126203732261
---
header: 
  seq: 4572
  stamp: 
    secs: 1565218534
    nsecs: 205969095
  frame_id: "/stereo/left"
pose: 
  position: 
    x: 0.0339909915864
    y: 0.0110731612067
    z: 0.438874164568
  orientation: 
    x: -0.0135400009734
    y: -0.999720130273
    z: 0.0145495369171
    w: -0.012831230486
---
header: 
  seq: 4573
  stamp: 
    secs: 1565218534
    nsecs: 851348400
  frame_id: "/stereo/left"
pose: 
  position: 
    x: 0.0340120552904
    y: 0.0111689814346
    z: 0.43860857028
  orientation: 
    x: -0.013401407257
    y: -0.999688073852
    z: 0.0136437155198
    w: -0.0160625747832
---
header: 
  seq: 4574
  stamp: 
    secs: 1565218535
    nsecs: 429908275
  frame_id: "/stereo/left"
pose: 
  position: 
    x: 0.0340109389304
    y: 0.011108754887
    z: 0.43881640192
  orientation: 
    x: -0.0137162954554
    y: -0.999724219749
    z: 0.0126281259524
    w: -0.0142785896378
---
