header: 
  seq: 2212
  stamp: 
    secs: 1565216772
    nsecs: 492836236
  frame_id: "/stereo/left"
pose: 
  position: 
    x: 0.0403702395594
    y: -0.0110354466322
    z: 0.574089544366
  orientation: 
    x: -0.0121833218573
    y: -0.996768388342
    z: -0.0582563330782
    w: 0.0539494794016
---
header: 
  seq: 2213
  stamp: 
    secs: 1565216773
    nsecs: 677084445
  frame_id: "/stereo/left"
pose: 
  position: 
    x: 0.0402309513726
    y: -0.0110708003618
    z: 0.574460815753
  orientation: 
    x: -0.0116386459595
    y: -0.996880146556
    z: -0.0548846744105
    w: 0.05551745525
---
header: 
  seq: 2214
  stamp: 
    secs: 1565216774
    nsecs: 263483524
  frame_id: "/stereo/left"
pose: 
  position: 
    x: 0.0401547958563
    y: -0.0110903005828
    z: 0.574172465249
  orientation: 
    x: -0.0113058934166
    y: -0.996958049366
    z: -0.0536195895595
    w: 0.0554234985668
---
header: 
  seq: 2215
  stamp: 
    secs: 1565216774
    nsecs: 826600313
  frame_id: "/stereo/left"
pose: 
  position: 
    x: 0.0401552932633
    y: -0.0110893290874
    z: 0.574158199223
  orientation: 
    x: -0.0111606909851
    y: -0.996953436899
    z: -0.05486407513
    w: 0.0543066928876
---
header: 
  seq: 2216
  stamp: 
    secs: 1565216775
    nsecs: 402944803
  frame_id: "/stereo/left"
pose: 
  position: 
    x: 0.040301451868
    y: -0.0110432109539
    z: 0.574553515913
  orientation: 
    x: -0.0115970585239
    y: -0.996914267432
    z: -0.055623263014
    w: 0.0541618337529
---
header: 
  seq: 2217
  stamp: 
    secs: 1565216776
    nsecs: 615253925
  frame_id: "/stereo/left"
pose: 
  position: 
    x: 0.0402807160446
    y: -0.011033299825
    z: 0.574433971772
  orientation: 
    x: -0.0119106032716
    y: -0.996983026516
    z: -0.0556561969527
    w: 0.0527766057012
---
header: 
  seq: 2218
  stamp: 
    secs: 1565216777
    nsecs: 189984798
  frame_id: "/stereo/left"
pose: 
  position: 
    x: 0.0403151623769
    y: -0.0110183473854
    z: 0.574490348906
  orientation: 
    x: -0.0117319090769
    y: -0.99690034857
    z: -0.0555899440111
    w: 0.054422563849
---
header: 
  seq: 2219
  stamp: 
    secs: 1565216777
    nsecs: 799366712
  frame_id: "/stereo/left"
pose: 
  position: 
    x: 0.0402880521249
    y: -0.0110170647272
    z: 0.574198493052
  orientation: 
    x: -0.0116640187106
    y: -0.997014528636
    z: -0.0553846328478
    w: 0.0525216412524
---
header: 
  seq: 2220
  stamp: 
    secs: 1565216778
    nsecs: 361978530
  frame_id: "/stereo/left"
pose: 
  position: 
    x: 0.0402528961468
    y: -0.0110955256969
    z: 0.573999912904
  orientation: 
    x: -0.011615820538
    y: -0.996947636904
    z: -0.054068431566
    w: 0.0551097694826
---
header: 
  seq: 2221
  stamp: 
    secs: 1565216779
    nsecs: 519825696
  frame_id: "/stereo/left"
pose: 
  position: 
    x: 0.0402707753954
    y: -0.0111059318278
    z: 0.57451144567
  orientation: 
    x: -0.0114026404662
    y: -0.996881538195
    z: -0.0533352646401
    w: 0.0570309402118
---
header: 
  seq: 2222
  stamp: 
    secs: 1565216780
    nsecs:  83365678
  frame_id: "/stereo/left"
pose: 
  position: 
    x: 0.0402331821521
    y: -0.0110776489775
    z: 0.573849822687
  orientation: 
    x: -0.0107039039526
    y: -0.996821436246
    z: -0.0548946688871
    w: 0.0567364610062
---
header: 
  seq: 2223
  stamp: 
    secs: 1565216780
    nsecs: 650850296
  frame_id: "/stereo/left"
pose: 
  position: 
    x: 0.0403844303632
    y: -0.0111015430467
    z: 0.575332970643
  orientation: 
    x: -0.0119057871934
    y: -0.996920575681
    z: -0.053673427747
    w: 0.0559176284232
---
header: 
  seq: 2224
  stamp: 
    secs: 1565216781
    nsecs: 307308912
  frame_id: "/stereo/left"
pose: 
  position: 
    x: 0.0402835755101
    y: -0.0110718757255
    z: 0.574494337582
  orientation: 
    x: -0.0113357163706
    y: -0.996820095338
    z: -0.0558315560528
    w: 0.0557138799006
---
header: 
  seq: 2225
  stamp: 
    secs: 1565216782
    nsecs: 461590766
  frame_id: "/stereo/left"
pose: 
  position: 
    x: 0.040289729837
    y: -0.0110618199632
    z: 0.574094265265
  orientation: 
    x: -0.0117532923017
    y: -0.996819479678
    z: -0.0560582581708
    w: 0.0554098975366
---
header: 
  seq: 2226
  stamp: 
    secs: 1565216783
    nsecs:  69579839
  frame_id: "/stereo/left"
pose: 
  position: 
    x: 0.0402117756395
    y: -0.0110679529359
    z: 0.57407190158
  orientation: 
    x: -0.0112158797192
    y: -0.997140831537
    z: -0.053298646716
    w: 0.0523795798234
---
header: 
  seq: 2227
  stamp: 
    secs: 1565216783
    nsecs: 651553630
  frame_id: "/stereo/left"
pose: 
  position: 
    x: 0.0402040799422
    y: -0.0110448527057
    z: 0.57394726594
  orientation: 
    x: -0.0114562910347
    y: -0.996889398622
    z: -0.0548596659186
    w: 0.0554138734088
---
header: 
  seq: 2228
  stamp: 
    secs: 1565216784
    nsecs: 220474481
  frame_id: "/stereo/left"
pose: 
  position: 
    x: 0.0401945823211
    y: -0.0111024932946
    z: 0.57382854468
  orientation: 
    x: -0.0111708446908
    y: -0.996958947789
    z: -0.055302238101
    w: 0.0537562193022
---
header: 
  seq: 2229
  stamp: 
    secs: 1565216785
    nsecs: 410684108
  frame_id: "/stereo/left"
pose: 
  position: 
    x: 0.0403287454439
    y: -0.0110183151705
    z: 0.573956825293
  orientation: 
    x: -0.011920952582
    y: -0.996817515762
    z: -0.058542079723
    w: 0.0527783673693
---
header: 
  seq: 2230
  stamp: 
    secs: 1565216785
    nsecs: 994335412
  frame_id: "/stereo/left"
pose: 
  position: 
    x: 0.0402410336776
    y: -0.0110249882554
    z: 0.574265036655
  orientation: 
    x: -0.0114120466283
    y: -0.9968066024
    z: -0.0552722182726
    w: 0.0564919860673
---
header: 
  seq: 2231
  stamp: 
    secs: 1565216786
    nsecs: 599668979
  frame_id: "/stereo/left"
pose: 
  position: 
    x: 0.0401481663278
    y: -0.0110182132808
    z: 0.573529880661
  orientation: 
    x: -0.0104781039267
    y: -0.996949120573
    z: -0.0558511152425
    w: 0.0535099360268
---
header: 
  seq: 2232
  stamp: 
    secs: 1565216787
    nsecs: 172281026
  frame_id: "/stereo/left"
pose: 
  position: 
    x: 0.0401505204308
    y: -0.0111013116038
    z: 0.573597098159
  orientation: 
    x: -0.0113197009667
    y: -0.997028806309
    z: -0.0533596868627
    w: 0.05438903914
---
header: 
  seq: 2233
  stamp: 
    secs: 1565216788
    nsecs: 389467954
  frame_id: "/stereo/left"
pose: 
  position: 
    x: 0.0402071455584
    y: -0.0111139388106
    z: 0.573761586325
  orientation: 
    x: -0.0110266114512
    y: -0.996907523926
    z: -0.054370163249
    w: 0.0556568767351
---
header: 
  seq: 2234
  stamp: 
    secs: 1565216788
    nsecs: 951223373
  frame_id: "/stereo/left"
pose: 
  position: 
    x: 0.0402458471764
    y: -0.0110734325202
    z: 0.574234501255
  orientation: 
    x: -0.0113231410358
    y: -0.996909373606
    z: -0.0540022902105
    w: 0.0559217305319
---
header: 
  seq: 2235
  stamp: 
    secs: 1565216789
    nsecs: 533073186
  frame_id: "/stereo/left"
pose: 
  position: 
    x: 0.0401505599261
    y: -0.0110501542017
    z: 0.573938030451
  orientation: 
    x: -0.0110765695421
    y: -0.996904156099
    z: -0.0547936270544
    w: 0.0552907912153
---
header: 
  seq: 2236
  stamp: 
    secs: 1565216790
    nsecs: 135818958
  frame_id: "/stereo/left"
pose: 
  position: 
    x: 0.0402591339721
    y: -0.0110222021462
    z: 0.573820042537
  orientation: 
    x: -0.011834821679
    y: -0.996887464295
    z: -0.0552925090759
    w: 0.0549368634591
---
header: 
  seq: 2237
  stamp: 
    secs: 1565216791
    nsecs: 274856567
  frame_id: "/stereo/left"
pose: 
  position: 
    x: 0.0401258778016
    y: -0.0110260492645
    z: 0.573810422094
  orientation: 
    x: -0.0112537764719
    y: -0.997069852873
    z: -0.0522699401465
    w: 0.0547075347944
---
header: 
  seq: 2238
  stamp: 
    secs: 1565216791
    nsecs: 918025970
  frame_id: "/stereo/left"
pose: 
  position: 
    x: 0.0403122709487
    y: -0.0110355181796
    z: 0.574187194088
  orientation: 
    x: -0.0117992474723
    y: -0.996882047855
    z: -0.0556935714935
    w: 0.0546368604345
---
header: 
  seq: 2239
  stamp: 
    secs: 1565216792
    nsecs: 486209392
  frame_id: "/stereo/left"
pose: 
  position: 
    x: 0.0402219120642
    y: -0.0110529245356
    z: 0.573333566247
  orientation: 
    x: -0.0104487806577
    y: -0.996951875676
    z: -0.0546084937516
    w: 0.0547329240833
---
header: 
  seq: 2240
  stamp: 
    secs: 1565216793
    nsecs:  60538768
  frame_id: "/stereo/left"
pose: 
  position: 
    x: 0.0403097198009
    y: -0.0111362702468
    z: 0.574738680271
  orientation: 
    x: -0.0117660208598
    y: -0.99687912772
    z: -0.0556918755342
    w: 0.054698998799
---
header: 
  seq: 2241
  stamp: 
    secs: 1565216794
    nsecs: 249351739
  frame_id: "/stereo/left"
pose: 
  position: 
    x: 0.0401578321481
    y: -0.0110763172173
    z: 0.573820773438
  orientation: 
    x: -0.0112163021203
    y: -0.996864697422
    z: -0.0538533381315
    w: 0.0568751929484
---
header: 
  seq: 2242
  stamp: 
    secs: 1565216794
    nsecs: 825118780
  frame_id: "/stereo/left"
pose: 
  position: 
    x: 0.0402562479939
    y: -0.0109915558413
    z: 0.573169795912
  orientation: 
    x: -0.0114100893022
    y: -0.996847590781
    z: -0.0561479697217
    w: 0.0548825665541
---
header: 
  seq: 2243
  stamp: 
    secs: 1565216795
    nsecs: 473355293
  frame_id: "/stereo/left"
pose: 
  position: 
    x: 0.0402697759596
    y: -0.0109796386471
    z: 0.573711346696
  orientation: 
    x: -0.0117350789856
    y: -0.996776092427
    z: -0.0578894635172
    w: 0.0543002716424
---
header: 
  seq: 2244
  stamp: 
    secs: 1565216796
    nsecs:  37317037
  frame_id: "/stereo/left"
pose: 
  position: 
    x: 0.0403244434378
    y: -0.0109754507753
    z: 0.573738677174
  orientation: 
    x: -0.0123737359902
    y: -0.996764919454
    z: -0.0594062092152
    w: 0.0527018814671
---
header: 
  seq: 2245
  stamp: 
    secs: 1565216797
    nsecs: 213783502
  frame_id: "/stereo/left"
pose: 
  position: 
    x: 0.0401472970909
    y: -0.0110570541223
    z: 0.574216013673
  orientation: 
    x: -0.0113696143064
    y: -0.997027491781
    z: -0.0534988293334
    w: 0.0542658987077
---
header: 
  seq: 2246
  stamp: 
    secs: 1565216797
    nsecs: 800646543
  frame_id: "/stereo/left"
pose: 
  position: 
    x: 0.0402163666671
    y: -0.0110489731907
    z: 0.574438175743
  orientation: 
    x: -0.0116181325392
    y: -0.996890278344
    z: -0.055855301356
    w: 0.0543597024426
---
header: 
  seq: 2247
  stamp: 
    secs: 1565216798
    nsecs: 369984865
  frame_id: "/stereo/left"
pose: 
  position: 
    x: 0.0401993755424
    y: -0.0110758716808
    z: 0.57479923884
  orientation: 
    x: -0.0117255987892
    y: -0.997171200955
    z: -0.0523750274214
    w: 0.0526209352062
---
header: 
  seq: 2248
  stamp: 
    secs: 1565216798
    nsecs: 998757123
  frame_id: "/stereo/left"
pose: 
  position: 
    x: 0.0402936989806
    y: -0.0110484131021
    z: 0.574668489218
  orientation: 
    x: -0.0117131819233
    y: -0.996847875118
    z: -0.053890971302
    w: 0.0570340113802
---
header: 
  seq: 2249
  stamp: 
    secs: 1565216800
    nsecs: 128163099
  frame_id: "/stereo/left"
pose: 
  position: 
    x: 0.0402432368491
    y: -0.0110373674038
    z: 0.574301981593
  orientation: 
    x: -0.011763219654
    y: -0.997068264103
    z: -0.0536374505894
    w: 0.0532872149327
---
header: 
  seq: 2250
  stamp: 
    secs: 1565216800
    nsecs: 748095750
  frame_id: "/stereo/left"
pose: 
  position: 
    x: 0.0402684577294
    y: -0.0110899201579
    z: 0.573654081643
  orientation: 
    x: -0.0109664779677
    y: -0.996933743703
    z: -0.0556366802578
    w: 0.0539203749661
---
header: 
  seq: 2251
  stamp: 
    secs: 1565216801
    nsecs: 329035520
  frame_id: "/stereo/left"
pose: 
  position: 
    x: 0.0402647726756
    y: -0.0110868525893
    z: 0.573678850968
  orientation: 
    x: -0.0110874069001
    y: -0.996972589243
    z: -0.0547080654702
    w: 0.0541271953754
---
